{
"type": "FeatureCollection",
"features": [
{ "type": "Feature", "properties": { "qrank": 9049218, "id": "Q513", "name": "Mount Everest" }, "geometry": { "type": "Point", "coordinates": [ 86.925277777778007, 27.988055555555999 ] } },
{ "type": "Feature", "properties": { "qrank": 6920124, "id": "Q83497", "name": "Mount Rushmore" }, "geometry": { "type": "Point", "coordinates": [ -103.459825, 43.878947222222003 ] } },
{ "type": "Feature", "properties": { "qrank": 3446798, "id": "Q43512", "name": "K2" }, "geometry": { "type": "Point", "coordinates": [ 76.513333333332994, 35.881111111110997 ] } },
{ "type": "Feature", "properties": { "qrank": 2872861, "id": "Q7296", "name": "Mount Kilimanjaro" }, "geometry": { "type": "Point", "coordinates": [ 37.359166666667001, -3.0666666666667 ] } },
{ "type": "Feature", "properties": { "qrank": 2454481, "id": "Q39231", "name": "Mount Fuji" }, "geometry": { "type": "Point", "coordinates": [ 138.730555555559988, 35.3625 ] } },
{ "type": "Feature", "properties": { "qrank": 2452012, "id": "Q16990", "name": "Mount Etna" }, "geometry": { "type": "Point", "coordinates": [ 14.993220288811999, 37.750834514818003 ] } },
{ "type": "Feature", "properties": { "qrank": 2374050, "id": "Q82613", "name": "Krakatoa" }, "geometry": { "type": "Point", "coordinates": [ 105.423, -6.102 ] } },
{ "type": "Feature", "properties": { "qrank": 2215084, "id": "Q583", "name": "Mont Blanc" }, "geometry": { "type": "Point", "coordinates": [ 6.865, 45.833611111110997 ] } },
{ "type": "Feature", "properties": { "qrank": 1779996, "id": "Q129296", "name": "Santorini" }, "geometry": { "type": "Point", "coordinates": [ 25.433333333333, 36.416666666666998 ] } },
{ "type": "Feature", "properties": { "qrank": 1680614, "id": "Q43105", "name": "Mount Elbrus" }, "geometry": { "type": "Point", "coordinates": [ 42.448611111110999, 43.345833333332997 ] } },
{ "type": "Feature", "properties": { "qrank": 1620059, "id": "Q72303", "name": "Mount Ararat" }, "geometry": { "type": "Point", "coordinates": [ 44.300380555556004, 39.702761111111002 ] } },
{ "type": "Feature", "properties": { "qrank": 1484324, "id": "Q80344", "name": "Mount Olympus" }, "geometry": { "type": "Point", "coordinates": [ 22.35, 40.06 ] } },
{ "type": "Feature", "properties": { "qrank": 1371705, "id": "Q130018", "name": "Denali" }, "geometry": { "type": "Point", "coordinates": [ -151.007222222220008, 63.069444444444002 ] } },
{ "type": "Feature", "properties": { "qrank": 1326027, "id": "Q229107", "name": "Mount Kailash" }, "geometry": { "type": "Point", "coordinates": [ 81.312777777777995, 31.066944444444001 ] } },
{ "type": "Feature", "properties": { "qrank": 1319934, "id": "Q1374", "name": "Matterhorn" }, "geometry": { "type": "Point", "coordinates": [ 7.6588888888889, 45.976388888888998 ] } },
{ "type": "Feature", "properties": { "qrank": 1295233, "id": "Q39739", "name": "Aconcagua" }, "geometry": { "type": "Point", "coordinates": [ -70.011111111111006, -32.653611111110997 ] } },
{ "type": "Feature", "properties": { "qrank": 1285906, "id": "Q377485", "name": "Mount Sinai" }, "geometry": { "type": "Point", "coordinates": [ 33.973333333333002, 28.539722222222 ] } },
{ "type": "Feature", "properties": { "qrank": 1012761, "id": "Q130736", "name": "Nanga Parbat" }, "geometry": { "type": "Point", "coordinates": [ 74.59, 35.239166666667003 ] } },
{ "type": "Feature", "properties": { "qrank": 975280, "id": "Q82019", "name": "Kanchenjunga" }, "geometry": { "type": "Point", "coordinates": [ 88.133333, 27.7 ] } },
{ "type": "Feature", "properties": { "qrank": 949019, "id": "Q130321", "name": "Mount Athos" }, "geometry": { "type": "Point", "coordinates": [ 24.326388888888999, 40.157222222222003 ] } },
{ "type": "Feature", "properties": { "qrank": 928891, "id": "Q609700", "name": "Stone Mountain" }, "geometry": { "type": "Point", "coordinates": [ -84.145422222221995, 33.805944444444002 ] } },
{ "type": "Feature", "properties": { "qrank": 843971, "id": "Q131230", "name": "Mauna Kea" }, "geometry": { "type": "Point", "coordinates": [ -155.466666666669994, 19.816666666667 ] } },
{ "type": "Feature", "properties": { "qrank": 823213, "id": "Q306201", "name": "Devils Tower" }, "geometry": { "type": "Point", "coordinates": [ -104.715277777780003, 44.590277777777999 ] } },
{ "type": "Feature", "properties": { "qrank": 812847, "id": "Q1124852", "name": "El Capitan" }, "geometry": { "type": "Point", "coordinates": [ -119.637, 37.734 ] } },
{ "type": "Feature", "properties": { "qrank": 758479, "id": "Q194057", "name": "Mount Rainier" }, "geometry": { "type": "Point", "coordinates": [ -121.760277777780004, 46.852777777778002 ] } },
{ "type": "Feature", "properties": { "qrank": 754229, "id": "Q131148", "name": "Stromboli" }, "geometry": { "type": "Point", "coordinates": [ 15.217777777778, 38.794166666667003 ] } },
{ "type": "Feature", "properties": { "qrank": 721582, "id": "Q168714", "name": "Tambora" }, "geometry": { "type": "Point", "coordinates": [ 117.992777777780006, -8.245277777777799 ] } },
{ "type": "Feature", "properties": { "qrank": 688572, "id": "Q38954", "name": "Teide" }, "geometry": { "type": "Point", "coordinates": [ -16.639166666666998, 28.270833333333002 ] } },
{ "type": "Feature", "properties": { "qrank": 656876, "id": "Q4168", "name": "Loreley" }, "geometry": { "type": "Point", "coordinates": [ 7.7288888888889, 50.139444444444003 ] } },
{ "type": "Feature", "properties": { "qrank": 628885, "id": "Q1451", "name": "Pinatubo" }, "geometry": { "type": "Point", "coordinates": [ 120.35, 15.13 ] } },
{ "type": "Feature", "properties": { "qrank": 617328, "id": "Q104674", "name": "Ben Nevis" }, "geometry": { "type": "Point", "coordinates": [ -5.003675, 56.796891 ] } },
{ "type": "Feature", "properties": { "qrank": 611621, "id": "Q14081", "name": "Chimborazo volcano" }, "geometry": { "type": "Point", "coordinates": [ -78.8175, -1.4691666666667 ] } },
{ "type": "Feature", "properties": { "qrank": 598638, "id": "Q3375", "name": "Zugspitze" }, "geometry": { "type": "Point", "coordinates": [ 10.986314, 47.421217 ] } },
{ "type": "Feature", "properties": { "qrank": 593902, "id": "Q358755", "name": "Mount Takahe" }, "geometry": { "type": "Point", "coordinates": [ -112.1, -76.3 ] } },
{ "type": "Feature", "properties": { "qrank": 550467, "id": "Q178167", "name": "Mount Kosciuszko" }, "geometry": { "type": "Point", "coordinates": [ 148.2635105, -36.4558303 ] } },
{ "type": "Feature", "properties": { "qrank": 537155, "id": "Q235539", "name": "Mount Whitney" }, "geometry": { "type": "Point", "coordinates": [ -118.292, 36.578583333333 ] } },
{ "type": "Feature", "properties": { "qrank": 518652, "id": "Q205976", "name": "Mount of Olives" }, "geometry": { "type": "Point", "coordinates": [ 35.245686, 31.777946 ] } },
{ "type": "Feature", "properties": { "qrank": 514695, "id": "Q107635", "name": "Baekdu Mountain" }, "geometry": { "type": "Point", "coordinates": [ 128.077222222220001, 41.992777777778002 ] } },
{ "type": "Feature", "properties": { "qrank": 509075, "id": "Q1484", "name": "Mayon Volcano" }, "geometry": { "type": "Point", "coordinates": [ 123.685, 13.256666666667 ] } },
{ "type": "Feature", "properties": { "qrank": 496914, "id": "Q4425", "name": "Eiger" }, "geometry": { "type": "Point", "coordinates": [ 8.005286822, 46.577607529 ] } },
{ "type": "Feature", "properties": { "qrank": 482211, "id": "Q755123", "name": "Phlegraean Fields" }, "geometry": { "type": "Point", "coordinates": [ 14.139, 40.827 ] } },
{ "type": "Feature", "properties": { "qrank": 474515, "id": "Q215471", "name": "Mount Hermon" }, "geometry": { "type": "Point", "coordinates": [ 35.85, 33.4 ] } },
{ "type": "Feature", "properties": { "qrank": 445314, "id": "Q168702", "name": "Lhotse" }, "geometry": { "type": "Point", "coordinates": [ 86.933333333332996, 27.961666666667 ] } },
{ "type": "Feature", "properties": { "qrank": 437216, "id": "Q1187278", "name": "Nishinoshima Island" }, "geometry": { "type": "Point", "coordinates": [ 140.87444444, 27.24694444 ] } },
{ "type": "Feature", "properties": { "qrank": 425673, "id": "Q189915", "name": "Dinaric Alps" }, "geometry": { "type": "Point", "coordinates": [ 19.0, 43.0 ] } },
{ "type": "Feature", "properties": { "qrank": 421456, "id": "Q3388", "name": "Grossglockner" }, "geometry": { "type": "Point", "coordinates": [ 12.69385, 47.074528 ] } },
{ "type": "Feature", "properties": { "qrank": 413807, "id": "Q40758", "name": "Damavand" }, "geometry": { "type": "Point", "coordinates": [ 52.109166666667001, 35.955277777778001 ] } },
{ "type": "Feature", "properties": { "qrank": 391183, "id": "Q209064", "name": "Mont Ventoux" }, "geometry": { "type": "Point", "coordinates": [ 5.2833333333333, 44.166666666666998 ] } },
{ "type": "Feature", "properties": { "qrank": 390114, "id": "Q4777", "name": "Mount Roraima" }, "geometry": { "type": "Point", "coordinates": [ -60.73855, 5.20289 ] } },
{ "type": "Feature", "properties": { "qrank": 381333, "id": "Q207917", "name": "Mount Nemrut" }, "geometry": { "type": "Point", "coordinates": [ 38.74083, 37.98074 ] } },
{ "type": "Feature", "properties": { "qrank": 372262, "id": "Q213360", "name": "Table Mountain" }, "geometry": { "type": "Point", "coordinates": [ 18.403108333333002, -33.957313888888997 ] } },
{ "type": "Feature", "properties": { "qrank": 371314, "id": "Q76309", "name": "Mount Pelée" }, "geometry": { "type": "Point", "coordinates": [ -61.165555555555997, 14.813055555556 ] } },
{ "type": "Feature", "properties": { "qrank": 370820, "id": "Q1045888", "name": "Puncak Jaya" }, "geometry": { "type": "Point", "coordinates": [ 137.183333333330012, -4.0833333333333 ] } },
{ "type": "Feature", "properties": { "qrank": 370153, "id": "Q181476", "name": "Cotopaxi volcano" }, "geometry": { "type": "Point", "coordinates": [ -78.437777777777995, -0.68055555555556 ] } },
{ "type": "Feature", "properties": { "qrank": 365182, "id": "Q665321", "name": "Pikes Peak" }, "geometry": { "type": "Point", "coordinates": [ -105.044166666669994, 38.840555555556001 ] } },
{ "type": "Feature", "properties": { "qrank": 359971, "id": "Q238147", "name": "Pico de Orizaba" }, "geometry": { "type": "Point", "coordinates": [ -97.27, 19.03 ] } },
{ "type": "Feature", "properties": { "qrank": 349829, "id": "Q188982", "name": "Mount Erebus" }, "geometry": { "type": "Point", "coordinates": [ 167.283333333330006, -77.533333333333005 ] } },
{ "type": "Feature", "properties": { "qrank": 340566, "id": "Q617511", "name": "Sněžka" }, "geometry": { "type": "Point", "coordinates": [ 15.740277777777999, 50.736111111111001 ] } },
{ "type": "Feature", "properties": { "qrank": 334955, "id": "Q231620", "name": "Parícutin" }, "geometry": { "type": "Point", "coordinates": [ -102.251, 19.493 ] } },
{ "type": "Feature", "properties": { "qrank": 316606, "id": "Q233836", "name": "Ojos del Salado" }, "geometry": { "type": "Point", "coordinates": [ -68.542222222221994, -27.109444444444001 ] } },
{ "type": "Feature", "properties": { "qrank": 303232, "id": "Q210722", "name": "Sugarloaf Mountain" }, "geometry": { "type": "Point", "coordinates": [ -43.15516, -22.94949 ] } },
{ "type": "Feature", "properties": { "qrank": 302178, "id": "Q791", "name": "Taumatawhakatangihangakōauauotamateapōkaiwhenuakitānatahu" }, "geometry": { "type": "Point", "coordinates": [ 176.5402, -40.346 ] } },
{ "type": "Feature", "properties": { "qrank": 300238, "id": "Q500275", "name": "Yushan Main Peak" }, "geometry": { "type": "Point", "coordinates": [ 120.957266666669994, 23.47 ] } },
{ "type": "Feature", "properties": { "qrank": 292190, "id": "Q2244727", "name": "El Peñón de Guatapé" }, "geometry": { "type": "Point", "coordinates": [ -75.1791552, 6.2194517 ] } },
{ "type": "Feature", "properties": { "qrank": 290181, "id": "Q155721", "name": "Brocken" }, "geometry": { "type": "Point", "coordinates": [ 10.617222222222001, 51.800555555556002 ] } },
{ "type": "Feature", "properties": { "qrank": 286539, "id": "Q105261", "name": "Mount Parnassus" }, "geometry": { "type": "Point", "coordinates": [ 22.6167, 38.533 ] } },
{ "type": "Feature", "properties": { "qrank": 285817, "id": "Q680161", "name": "Mount Nebo" }, "geometry": { "type": "Point", "coordinates": [ 35.725555555555999, 31.767777777778001 ] } },
{ "type": "Feature", "properties": { "qrank": 285511, "id": "Q154372", "name": "Monte Cassino" }, "geometry": { "type": "Point", "coordinates": [ 13.813888888889, 41.49 ] } },
{ "type": "Feature", "properties": { "qrank": 285041, "id": "Q193785", "name": "Mount Tabor" }, "geometry": { "type": "Point", "coordinates": [ 35.392916666666999, 32.68625 ] } },
{ "type": "Feature", "properties": { "qrank": 283800, "id": "Q1056102", "name": "Cerro Torre" }, "geometry": { "type": "Point", "coordinates": [ -73.098333333333002, -49.292777777777999 ] } },
{ "type": "Feature", "properties": { "qrank": 283663, "id": "Q81213", "name": "Gerlachovský štít" }, "geometry": { "type": "Point", "coordinates": [ 20.134033333333001, 49.163816666667003 ] } },
{ "type": "Feature", "properties": { "qrank": 280343, "id": "Q270158", "name": "Semeru" }, "geometry": { "type": "Point", "coordinates": [ 112.92, -8.108333333333301 ] } },
{ "type": "Feature", "properties": { "qrank": 273092, "id": "Q217142", "name": "Snowdon" }, "geometry": { "type": "Point", "coordinates": [ -4.0755888888889, 53.068863888888998 ] } },
{ "type": "Feature", "properties": { "qrank": 269748, "id": "Q210252", "name": "Klyuchevskaya Sopka" }, "geometry": { "type": "Point", "coordinates": [ 160.63333333333, 56.066666666666997 ] } },
{ "type": "Feature", "properties": { "qrank": 269348, "id": "Q746223", "name": "Preikestolen" }, "geometry": { "type": "Point", "coordinates": [ 6.19052, 58.98614 ] } },
{ "type": "Feature", "properties": { "qrank": 265427, "id": "Q672936", "name": "Rysy" }, "geometry": { "type": "Point", "coordinates": [ 20.088055555556, 49.179444444444002 ] } },
{ "type": "Feature", "properties": { "qrank": 263376, "id": "Q207678", "name": "Sinabung Mount" }, "geometry": { "type": "Point", "coordinates": [ 98.391944444443993, 3.17 ] } },
{ "type": "Feature", "properties": { "qrank": 262794, "id": "Q120306", "name": "Mount Logan" }, "geometry": { "type": "Point", "coordinates": [ -140.402777777779988, 60.567222222222 ] } },
{ "type": "Feature", "properties": { "qrank": 262191, "id": "Q1146222", "name": "Scafell Pike" }, "geometry": { "type": "Point", "coordinates": [ -3.2115277777778, 54.454166666667 ] } },
{ "type": "Feature", "properties": { "qrank": 255043, "id": "Q203942", "name": "Galdhøpiggen" }, "geometry": { "type": "Point", "coordinates": [ 8.3, 61.633333333332999 ] } },
{ "type": "Feature", "properties": { "qrank": 248527, "id": "Q165440", "name": "Dhaulagiri" }, "geometry": { "type": "Point", "coordinates": [ 83.495277777778, 28.696111111111001 ] } },
{ "type": "Feature", "properties": { "qrank": 245559, "id": "Q170089", "name": "Cho Oyu" }, "geometry": { "type": "Point", "coordinates": [ 86.660833333333002, 28.094166666667 ] } },
{ "type": "Feature", "properties": { "qrank": 245035, "id": "Q213262", "name": "Nanda Devi" }, "geometry": { "type": "Point", "coordinates": [ 79.970833333333005, 30.373888888888999 ] } },
{ "type": "Feature", "properties": { "qrank": 242061, "id": "Q615337", "name": "Mount Mitchell" }, "geometry": { "type": "Point", "coordinates": [ -82.265277777777996, 35.764722222221998 ] } },
{ "type": "Feature", "properties": { "qrank": 241943, "id": "Q657225", "name": "Mount Elbert" }, "geometry": { "type": "Point", "coordinates": [ -106.445277777780007, 39.1175 ] } },
{ "type": "Feature", "properties": { "qrank": 240045, "id": "Q169986", "name": "Makalu" }, "geometry": { "type": "Point", "coordinates": [ 87.088611111111007, 27.889166666666998 ] } },
{ "type": "Feature", "properties": { "qrank": 235167, "id": "Q60967", "name": "Mount Kinabalu" }, "geometry": { "type": "Point", "coordinates": [ 116.55, 6.0833333333333 ] } },
{ "type": "Feature", "properties": { "qrank": 234415, "id": "Q170070", "name": "Manaslu" }, "geometry": { "type": "Point", "coordinates": [ 84.559722222222007, 28.55 ] } },
{ "type": "Feature", "properties": { "qrank": 234192, "id": "Q2205302", "name": "Anak Krakatau" }, "geometry": { "type": "Point", "coordinates": [ 105.423055555559998, -6.1019444444444 ] } },
{ "type": "Feature", "properties": { "qrank": 231526, "id": "Q214011", "name": "Kebnekaise" }, "geometry": { "type": "Point", "coordinates": [ 18.55, 67.883333333332999 ] } },
{ "type": "Feature", "properties": { "qrank": 231095, "id": "Q572801", "name": "Mount Washington" }, "geometry": { "type": "Point", "coordinates": [ -71.303483333333006, 44.270827777778003 ] } },
{ "type": "Feature", "properties": { "qrank": 229507, "id": "Q163919", "name": "Watzmann" }, "geometry": { "type": "Point", "coordinates": [ 12.923333333333, 47.555277777778002 ] } },
{ "type": "Feature", "properties": { "qrank": 227773, "id": "Q695221", "name": "Mount Abu" }, "geometry": { "type": "Point", "coordinates": [ 72.708333333333002, 24.5925 ] } },
{ "type": "Feature", "properties": { "qrank": 227129, "id": "Q215138", "name": "Mount Fitz Roy" }, "geometry": { "type": "Point", "coordinates": [ -73.043333333332995, -49.271388888889 ] } },
{ "type": "Feature", "properties": { "qrank": 226577, "id": "Q5059", "name": "Aoraki \/ Mount Cook" }, "geometry": { "type": "Point", "coordinates": [ 170.141944444440014, -43.595 ] } },
{ "type": "Feature", "properties": { "qrank": 223445, "id": "Q180996", "name": "Broad Peak" }, "geometry": { "type": "Point", "coordinates": [ 76.568055555556001, 35.810555555556 ] } },
{ "type": "Feature", "properties": { "qrank": 221832, "id": "Q627508", "name": "Hoverla" }, "geometry": { "type": "Point", "coordinates": [ 24.5, 48.160277777777999 ] } },
{ "type": "Feature", "properties": { "qrank": 221582, "id": "Q15312", "name": "Jungfrau" }, "geometry": { "type": "Point", "coordinates": [ 7.9625, 46.536944444444003 ] } },
{ "type": "Feature", "properties": { "qrank": 221540, "id": "Q3403", "name": "Dufourspitze" }, "geometry": { "type": "Point", "coordinates": [ 7.8666666666667, 45.936666666667001 ] } },
{ "type": "Feature", "properties": { "qrank": 221166, "id": "Q219986", "name": "Gangkhar Puensum" }, "geometry": { "type": "Point", "coordinates": [ 90.455, 28.046944444444001 ] } },
{ "type": "Feature", "properties": { "qrank": 220559, "id": "Q506938", "name": "Corcovado" }, "geometry": { "type": "Point", "coordinates": [ -43.211666666667, -22.9525 ] } },
{ "type": "Feature", "properties": { "qrank": 215986, "id": "Q211529", "name": "Khan Tengri" }, "geometry": { "type": "Point", "coordinates": [ 80.175, 42.210833333332999 ] } },
{ "type": "Feature", "properties": { "qrank": 214259, "id": "Q28025526", "name": "Vinicunca" }, "geometry": { "type": "Point", "coordinates": [ -71.30296, -13.869534 ] } },
{ "type": "Feature", "properties": { "qrank": 210859, "id": "Q595780", "name": "Babia Góra" }, "geometry": { "type": "Point", "coordinates": [ 19.530555555555999, 49.573055555556003 ] } },
{ "type": "Feature", "properties": { "qrank": 208543, "id": "Q1754806", "name": "Mount Ontake" }, "geometry": { "type": "Point", "coordinates": [ 137.480277777780003, 35.892777777778001 ] } },
{ "type": "Feature", "properties": { "qrank": 207050, "id": "Q216059", "name": "Mount Tai" }, "geometry": { "type": "Point", "coordinates": [ 117.1, 36.266666666667 ] } },
{ "type": "Feature", "properties": { "qrank": 203252, "id": "Q60789", "name": "Adam's Peak" }, "geometry": { "type": "Point", "coordinates": [ 80.499722222222005, 6.8094444444444 ] } },
{ "type": "Feature", "properties": { "qrank": 201884, "id": "Q1881042", "name": "Chota Nagpur Plateau" }, "geometry": { "type": "Point", "coordinates": [ 85.3333, 23.35 ] } },
{ "type": "Feature", "properties": { "qrank": 201514, "id": "Q200935", "name": "Huascarán" }, "geometry": { "type": "Point", "coordinates": [ -77.6, -9.116666666666699 ] } },
{ "type": "Feature", "properties": { "qrank": 201114, "id": "Q404728", "name": "Aiguille du Midi" }, "geometry": { "type": "Point", "coordinates": [ 6.8875, 45.878888888889001 ] } },
{ "type": "Feature", "properties": { "qrank": 199254, "id": "Q242730", "name": "Mount Asama" }, "geometry": { "type": "Point", "coordinates": [ 138.516666666670005, 36.4 ] } },
{ "type": "Feature", "properties": { "qrank": 195032, "id": "Q475623", "name": "The Twelve Apostles" }, "geometry": { "type": "Point", "coordinates": [ 143.04944444, -38.64055556 ] } },
{ "type": "Feature", "properties": { "qrank": 194051, "id": "Q209528", "name": "Mulhacén" }, "geometry": { "type": "Point", "coordinates": [ -3.3113888888889, 37.053333333333001 ] } },
{ "type": "Feature", "properties": { "qrank": 193806, "id": "Q207323", "name": "Vulcano" }, "geometry": { "type": "Point", "coordinates": [ 14.9658, 38.4042 ] } },
{ "type": "Feature", "properties": { "qrank": 193571, "id": "Q17541", "name": "Victoria Peak" }, "geometry": { "type": "Point", "coordinates": [ 114.143827777780004, 22.275469444443999 ] } },
{ "type": "Feature", "properties": { "qrank": 186636, "id": "Q925252", "name": "Half Dome" }, "geometry": { "type": "Point", "coordinates": [ -119.533166666669999, 37.746 ] } },
{ "type": "Feature", "properties": { "qrank": 185588, "id": "Q1143135", "name": "Mount Judi" }, "geometry": { "type": "Point", "coordinates": [ 42.342681, 37.426344 ] } },
{ "type": "Feature", "properties": { "qrank": 182839, "id": "Q207680", "name": "Mount Kazbek" }, "geometry": { "type": "Point", "coordinates": [ 44.516666666667, 42.7 ] } },
{ "type": "Feature", "properties": { "qrank": 182820, "id": "Q1747217", "name": "Girnar" }, "geometry": { "type": "Point", "coordinates": [ 70.7, 21.5 ] } },
{ "type": "Feature", "properties": { "qrank": 180995, "id": "Q1024", "name": "Triglav" }, "geometry": { "type": "Point", "coordinates": [ 13.836667, 46.378333 ] } },
{ "type": "Feature", "properties": { "qrank": 179077, "id": "Q1288751", "name": "Mount Gerizim" }, "geometry": { "type": "Point", "coordinates": [ 35.272777777778003, 32.199444444443998 ] } },
{ "type": "Feature", "properties": { "qrank": 178049, "id": "Q216894", "name": "Mount Arafat" }, "geometry": { "type": "Point", "coordinates": [ 39.983886, 21.354831 ] } },
{ "type": "Feature", "properties": { "qrank": 175751, "id": "Q968802", "name": "Serpent Mound" }, "geometry": { "type": "Point", "coordinates": [ -83.4305, 39.0253 ] } },
{ "type": "Feature", "properties": { "qrank": 175279, "id": "Q4250294", "name": "Kushtau" }, "geometry": { "type": "Point", "coordinates": [ 56.083333333333002, 53.7 ] } },
{ "type": "Feature", "properties": { "qrank": 173504, "id": "Q748040", "name": "Mount Hiei" }, "geometry": { "type": "Point", "coordinates": [ 135.838333333330013, 35.066666666666997 ] } },
{ "type": "Feature", "properties": { "qrank": 171802, "id": "Q1109030", "name": "Mount Tanigawa" }, "geometry": { "type": "Point", "coordinates": [ 138.929722222219993, 36.837222222222003 ] } },
{ "type": "Feature", "properties": { "qrank": 170611, "id": "Q503368", "name": "Carrauntoohil" }, "geometry": { "type": "Point", "coordinates": [ -9.7427777777778, 51.998888888888999 ] } },
{ "type": "Feature", "properties": { "qrank": 169263, "id": "Q443610", "name": "Alto de L'Angliru" }, "geometry": { "type": "Point", "coordinates": [ -5.942222, 43.221389 ] } },
{ "type": "Feature", "properties": { "qrank": 168738, "id": "Q1915041", "name": "Kholat Syakhl" }, "geometry": { "type": "Point", "coordinates": [ 59.4225, 61.755 ] } },
{ "type": "Feature", "properties": { "qrank": 166901, "id": "Q503433", "name": "Jbel Toubkal" }, "geometry": { "type": "Point", "coordinates": [ -7.9161111111111, 31.061944444443998 ] } },
{ "type": "Feature", "properties": { "qrank": 165902, "id": "Q41413", "name": "Ismoil Somoni Peak" }, "geometry": { "type": "Point", "coordinates": [ 72.016666666667007, 38.916666666666998 ] } },
{ "type": "Feature", "properties": { "qrank": 165515, "id": "Q944686", "name": "Diamond Head" }, "geometry": { "type": "Point", "coordinates": [ -157.81175, 21.259722222221999 ] } },
{ "type": "Feature", "properties": { "qrank": 165344, "id": "Q1144734", "name": "Genting Highlands" }, "geometry": { "type": "Point", "coordinates": [ 101.79335, 3.42368 ] } },
{ "type": "Feature", "properties": { "qrank": 164645, "id": "Q685166", "name": "Clingmans Dome" }, "geometry": { "type": "Point", "coordinates": [ -83.498611111111003, 35.562777777778003 ] } },
{ "type": "Feature", "properties": { "qrank": 164234, "id": "Q739484", "name": "Pico da Neblina" }, "geometry": { "type": "Point", "coordinates": [ -66.005358333333007, 0.80549444444444 ] } },
{ "type": "Feature", "properties": { "qrank": 161905, "id": "Q123782", "name": "Fansipan" }, "geometry": { "type": "Point", "coordinates": [ 103.775, 22.303333333333001 ] } },
{ "type": "Feature", "properties": { "qrank": 161887, "id": "Q859376", "name": "Volcán de Fuego" }, "geometry": { "type": "Point", "coordinates": [ -90.880833333333001, 14.474722222222001 ] } },
{ "type": "Feature", "properties": { "qrank": 159787, "id": "Q105124", "name": "Shishapangma" }, "geometry": { "type": "Point", "coordinates": [ 85.779722222222006, 28.352222222222 ] } },
{ "type": "Feature", "properties": { "qrank": 157033, "id": "Q208081", "name": "Aneto" }, "geometry": { "type": "Point", "coordinates": [ 0.65668611111111, 42.630991666667001 ] } },
{ "type": "Feature", "properties": { "qrank": 155928, "id": "Q1514176", "name": "Mount Yamantau" }, "geometry": { "type": "Point", "coordinates": [ 58.102, 54.255 ] } },
{ "type": "Feature", "properties": { "qrank": 153695, "id": "Q1033157", "name": "Jabal al-Nour" }, "geometry": { "type": "Point", "coordinates": [ 39.861388888889003, 21.458055555556001 ] } },
{ "type": "Feature", "properties": { "qrank": 152609, "id": "Q187138", "name": "Gasherbrum" }, "geometry": { "type": "Point", "coordinates": [ 76.696388888889004, 35.724444444444003 ] } },
{ "type": "Feature", "properties": { "qrank": 152500, "id": "Q724367", "name": "Belukha Mountain" }, "geometry": { "type": "Point", "coordinates": [ 86.589722222221994, 49.806944444443999 ] } },
{ "type": "Feature", "properties": { "qrank": 151684, "id": "Q712311", "name": "Arthur's Seat" }, "geometry": { "type": "Point", "coordinates": [ -3.1619444444444, 55.944166666667002 ] } },
{ "type": "Feature", "properties": { "qrank": 151327, "id": "Q548489", "name": "Ijen" }, "geometry": { "type": "Point", "coordinates": [ 114.242, -8.058 ] } },
{ "type": "Feature", "properties": { "qrank": 149811, "id": "Q332762", "name": "Jengish Chokusu" }, "geometry": { "type": "Point", "coordinates": [ 80.128713, 42.034662 ] } },
{ "type": "Feature", "properties": { "qrank": 146653, "id": "Q921136", "name": "Britton Hill" }, "geometry": { "type": "Point", "coordinates": [ -86.281944444443994, 30.988333333332999 ] } },
{ "type": "Feature", "properties": { "qrank": 145905, "id": "Q6923952", "name": "Mount Susitna" }, "geometry": { "type": "Point", "coordinates": [ -150.735, 61.4742 ] } },
{ "type": "Feature", "properties": { "qrank": 144091, "id": "Q3861073", "name": "Tianmen Mountain" }, "geometry": { "type": "Point", "coordinates": [ 110.483, 29.0528 ] } },
{ "type": "Feature", "properties": { "qrank": 139525, "id": "Q1190569", "name": "Tangkuban Perahu" }, "geometry": { "type": "Point", "coordinates": [ 107.6, -6.77 ] } },
{ "type": "Feature", "properties": { "qrank": 139486, "id": "Q703922", "name": "Drachenfels" }, "geometry": { "type": "Point", "coordinates": [ 7.2097222222222, 50.665277777778002 ] } },
{ "type": "Feature", "properties": { "qrank": 139255, "id": "Q1858056", "name": "Mount Katahdin" }, "geometry": { "type": "Point", "coordinates": [ -68.921275, 45.904355555556002 ] } },
{ "type": "Feature", "properties": { "qrank": 139110, "id": "Q44211", "name": "Corrientes" }, "geometry": { "type": "Point", "coordinates": [ -58.816666666666997, -27.483333333333 ] } },
{ "type": "Feature", "properties": { "qrank": 138258, "id": "Q607372", "name": "Puy de Dôme" }, "geometry": { "type": "Point", "coordinates": [ 2.9624, 45.772 ] } },
{ "type": "Feature", "properties": { "qrank": 137992, "id": "Q451697", "name": "Ama Dablam" }, "geometry": { "type": "Point", "coordinates": [ 86.861388888888996, 27.861111111111001 ] } },
{ "type": "Feature", "properties": { "qrank": 137065, "id": "Q1496690", "name": "Gaztelugatxe" }, "geometry": { "type": "Point", "coordinates": [ -2.785, 43.447 ] } },
{ "type": "Feature", "properties": { "qrank": 134338, "id": "Q1397501", "name": "Králický Sněžník" }, "geometry": { "type": "Point", "coordinates": [ 16.846944444443999, 50.2075 ] } },
{ "type": "Feature", "properties": { "qrank": 134286, "id": "Q190562", "name": "Mount Cameroon" }, "geometry": { "type": "Point", "coordinates": [ 9.1725, 4.2166666666667 ] } },
{ "type": "Feature", "properties": { "qrank": 134066, "id": "Q1191690", "name": "Mount Haruna" }, "geometry": { "type": "Point", "coordinates": [ 138.878055555559996, 36.476944444444001 ] } },
{ "type": "Feature", "properties": { "qrank": 132544, "id": "Q186853", "name": "Gasherbrum II" }, "geometry": { "type": "Point", "coordinates": [ 76.652777777777999, 35.7575 ] } },
{ "type": "Feature", "properties": { "qrank": 132423, "id": "Q1329959", "name": "Mount Takao" }, "geometry": { "type": "Point", "coordinates": [ 139.243611111109999, 35.625277777778003 ] } },
{ "type": "Feature", "properties": { "qrank": 130884, "id": "Q485550", "name": "Anamudi" }, "geometry": { "type": "Point", "coordinates": [ 77.066666666667004, 10.166666666667 ] } },
{ "type": "Feature", "properties": { "qrank": 130739, "id": "Q783742", "name": "Pico Duarte" }, "geometry": { "type": "Point", "coordinates": [ -71.005277777778005, 19.033055555556 ] } },
{ "type": "Feature", "properties": { "qrank": 130415, "id": "Q1109050", "name": "Mount Tsurugi" }, "geometry": { "type": "Point", "coordinates": [ 137.61722222, 36.62333333 ] } },
{ "type": "Feature", "properties": { "qrank": 129459, "id": "Q2098121", "name": "Planche des Belles Filles" }, "geometry": { "type": "Point", "coordinates": [ 6.77417, 47.7672 ] } },
{ "type": "Feature", "properties": { "qrank": 128235, "id": "Q2586260", "name": "Meru Peak" }, "geometry": { "type": "Point", "coordinates": [ 79.03222222, 30.86805556 ] } },
{ "type": "Feature", "properties": { "qrank": 128035, "id": "Q850051", "name": "Mount Taranaki" }, "geometry": { "type": "Point", "coordinates": [ 174.064722222220013, -39.296388888888998 ] } },
{ "type": "Feature", "properties": { "qrank": 127955, "id": "Q1027764", "name": "Govardhan hill" }, "geometry": { "type": "Point", "coordinates": [ 77.444, 27.473 ] } },
{ "type": "Feature", "properties": { "qrank": 127373, "id": "Q7825964", "name": "Torna Fort" }, "geometry": { "type": "Point", "coordinates": [ 73.6227, 18.2761 ] } },
{ "type": "Feature", "properties": { "qrank": 126418, "id": "Q322824", "name": "Signal de Botrange" }, "geometry": { "type": "Point", "coordinates": [ 6.093056, 50.501667 ] } },
{ "type": "Feature", "properties": { "qrank": 126179, "id": "Q594387", "name": "Mount Baker" }, "geometry": { "type": "Point", "coordinates": [ -121.8132008, 48.7773426 ] } },
{ "type": "Feature", "properties": { "qrank": 126106, "id": "Q248212", "name": "Barren Island" }, "geometry": { "type": "Point", "coordinates": [ 93.858333333332993, 12.277777777778001 ] } },
{ "type": "Feature", "properties": { "qrank": 125480, "id": "Q143014", "name": "Cordillera Oriental" }, "geometry": { "type": "Point", "coordinates": [ -72.2970708, 6.4842744 ] } },
{ "type": "Feature", "properties": { "qrank": 124993, "id": "Q838587", "name": "Lenin Peak" }, "geometry": { "type": "Point", "coordinates": [ 72.877897, 39.343677 ] } },
{ "type": "Feature", "properties": { "qrank": 124420, "id": "Q1523423", "name": "Giewont" }, "geometry": { "type": "Point", "coordinates": [ 19.933889, 49.250556 ] } },
{ "type": "Feature", "properties": { "qrank": 124344, "id": "Q158470", "name": "Mount Agung" }, "geometry": { "type": "Point", "coordinates": [ 115.507777777780007, -8.341944444444399 ] } },
{ "type": "Feature", "properties": { "qrank": 123564, "id": "Q494645", "name": "Hallasan" }, "geometry": { "type": "Point", "coordinates": [ 126.516666666670005, 33.35 ] } },
{ "type": "Feature", "properties": { "qrank": 123258, "id": "Q1248", "name": "Viso" }, "geometry": { "type": "Point", "coordinates": [ 7.0916666666667, 44.6675 ] } },
{ "type": "Feature", "properties": { "qrank": 123243, "id": "Q2078034", "name": "Grand Teton" }, "geometry": { "type": "Point", "coordinates": [ -110.802, 43.7412 ] } },
{ "type": "Feature", "properties": { "qrank": 123056, "id": "Q1517833", "name": "Ai-Petri" }, "geometry": { "type": "Point", "coordinates": [ 34.052777777777997, 44.451111111110997 ] } },
{ "type": "Feature", "properties": { "qrank": 121701, "id": "Q2563959", "name": "Angels Landing" }, "geometry": { "type": "Point", "coordinates": [ -112.948, 37.2694 ] } },
{ "type": "Feature", "properties": { "qrank": 121460, "id": "Q650695", "name": "Ortler" }, "geometry": { "type": "Point", "coordinates": [ 10.545, 46.508888888888997 ] } },
{ "type": "Feature", "properties": { "qrank": 120643, "id": "Q203568", "name": "Mount Aragats" }, "geometry": { "type": "Point", "coordinates": [ 44.195277777778003, 40.523055555555999 ] } },
{ "type": "Feature", "properties": { "qrank": 120500, "id": "Q1129992", "name": "Le Morne Brabant" }, "geometry": { "type": "Point", "coordinates": [ 57.313611111111001, -20.460555555555999 ] } },
{ "type": "Feature", "properties": { "qrank": 120133, "id": "Q847323", "name": "Rinjani" }, "geometry": { "type": "Point", "coordinates": [ 116.466666666669994, -8.4166666666667 ] } },
{ "type": "Feature", "properties": { "qrank": 119119, "id": "Q279980", "name": "Kata Tjuta" }, "geometry": { "type": "Point", "coordinates": [ 130.733333333329995, -25.3 ] } },
{ "type": "Feature", "properties": { "qrank": 119069, "id": "Q134927", "name": "Mount Emei" }, "geometry": { "type": "Point", "coordinates": [ 103.3325, 29.519722222222001 ] } },
{ "type": "Feature", "properties": { "qrank": 118410, "id": "Q845239", "name": "Soufrière Hills" }, "geometry": { "type": "Point", "coordinates": [ -62.183333333333003, 16.716666666666999 ] } },
{ "type": "Feature", "properties": { "qrank": 117488, "id": "Q1122701", "name": "Montjuïc" }, "geometry": { "type": "Point", "coordinates": [ 2.1580555555556, 41.364166666667003 ] } },
{ "type": "Feature", "properties": { "qrank": 117378, "id": "Q316401", "name": "Feldberg" }, "geometry": { "type": "Point", "coordinates": [ 8.0038888888889, 47.873611111111003 ] } },
{ "type": "Feature", "properties": { "qrank": 117242, "id": "Q214916", "name": "Llullaillaco" }, "geometry": { "type": "Point", "coordinates": [ -68.536852, -24.719863 ] } },
{ "type": "Feature", "properties": { "qrank": 116656, "id": "Q2899049", "name": "Needles" }, "geometry": { "type": "Point", "coordinates": [ -103.549, 43.8369 ] } },
{ "type": "Feature", "properties": { "qrank": 116438, "id": "Q2071883", "name": "Santorini caldera" }, "geometry": { "type": "Point", "coordinates": [ 25.396389, 36.403611 ] } },
{ "type": "Feature", "properties": { "qrank": 115607, "id": "Q3219949", "name": "Gunung Lawu" }, "geometry": { "type": "Point", "coordinates": [ 111.191666666670002, -7.625 ] } },
{ "type": "Feature", "properties": { "qrank": 115467, "id": "Q415251", "name": "Mount Akagi" }, "geometry": { "type": "Point", "coordinates": [ 139.193611111109988, 36.560833333333001 ] } },
{ "type": "Feature", "properties": { "qrank": 115157, "id": "Q2500342", "name": "Peña de Bernal" }, "geometry": { "type": "Point", "coordinates": [ -99.94564, 20.74966 ] } },
{ "type": "Feature", "properties": { "qrank": 114548, "id": "Q1364168", "name": "Sabalan" }, "geometry": { "type": "Point", "coordinates": [ 47.836944444444001, 38.266944444444 ] } },
{ "type": "Feature", "properties": { "qrank": 114272, "id": "Q753924", "name": "Pacaya" }, "geometry": { "type": "Point", "coordinates": [ -90.601111111110995, 14.380833333332999 ] } },
{ "type": "Feature", "properties": { "qrank": 114113, "id": "Q1051394", "name": "Machhapuchhre" }, "geometry": { "type": "Point", "coordinates": [ 83.949166666666997, 28.495 ] } },
{ "type": "Feature", "properties": { "qrank": 113914, "id": "Q513216", "name": "Kelut" }, "geometry": { "type": "Point", "coordinates": [ 112.305555555560005, -7.9333333333333 ] } },
{ "type": "Feature", "properties": { "qrank": 113321, "id": "Q495501", "name": "Mount Kumgang" }, "geometry": { "type": "Point", "coordinates": [ 128.104902777780012, 38.656763888889003 ] } },
{ "type": "Feature", "properties": { "qrank": 113169, "id": "Q707934", "name": "Artesonraju" }, "geometry": { "type": "Point", "coordinates": [ -77.633333333332999, -8.95 ] } },
{ "type": "Feature", "properties": { "qrank": 113124, "id": "Q833467", "name": "Grandfather Mountain" }, "geometry": { "type": "Point", "coordinates": [ -81.811388888888999, 36.111111111111001 ] } },
{ "type": "Feature", "properties": { "qrank": 112889, "id": "Q1140075", "name": "Doi Inthanon" }, "geometry": { "type": "Point", "coordinates": [ 98.486666666667006, 18.592222222221999 ] } },
{ "type": "Feature", "properties": { "qrank": 111762, "id": "Q870063", "name": "Hkakabo Razi" }, "geometry": { "type": "Point", "coordinates": [ 97.466666666666995, 28.333055555556001 ] } },
{ "type": "Feature", "properties": { "qrank": 111682, "id": "Q152073", "name": "Monserrate" }, "geometry": { "type": "Point", "coordinates": [ -74.056389, 4.605833 ] } },
{ "type": "Feature", "properties": { "qrank": 110319, "id": "Q673994", "name": "Nevado de Toluca" }, "geometry": { "type": "Point", "coordinates": [ -99.7675, 19.101666666667001 ] } },
{ "type": "Feature", "properties": { "qrank": 110220, "id": "Q641588", "name": "Arenal Volcano" }, "geometry": { "type": "Point", "coordinates": [ -84.703333333333006, 10.463333333333001 ] } },
{ "type": "Feature", "properties": { "qrank": 110068, "id": "Q387148", "name": "Mount Ślęża" }, "geometry": { "type": "Point", "coordinates": [ 16.708816944443999, 50.865016944444001 ] } },
{ "type": "Feature", "properties": { "qrank": 109560, "id": "Q1138683", "name": "Mount Mihara" }, "geometry": { "type": "Point", "coordinates": [ 139.3988, 34.7276 ] } },
{ "type": "Feature", "properties": { "qrank": 109358, "id": "Q1436040", "name": "Mount Uhud" }, "geometry": { "type": "Point", "coordinates": [ 39.613888888889001, 24.510277777778001 ] } },
{ "type": "Feature", "properties": { "qrank": 109263, "id": "Q15265", "name": "Mount Pilatus" }, "geometry": { "type": "Point", "coordinates": [ 8.241111, 46.973889 ] } },
{ "type": "Feature", "properties": { "qrank": 109100, "id": "Q427283", "name": "Helvellyn" }, "geometry": { "type": "Point", "coordinates": [ -3.0160527777778, 54.527230555556002 ] } },
{ "type": "Feature", "properties": { "qrank": 108691, "id": "Q16466024", "name": "Annapurna I" }, "geometry": { "type": "Point", "coordinates": [ 83.82, 28.5958 ] } },
{ "type": "Feature", "properties": { "qrank": 108534, "id": "Q589825", "name": "Mount Usu" }, "geometry": { "type": "Point", "coordinates": [ 140.838969444440011, 42.543375 ] } },
{ "type": "Feature", "properties": { "qrank": 108081, "id": "Q928681", "name": "Mount Pico" }, "geometry": { "type": "Point", "coordinates": [ -28.40095, 38.467271 ] } },
{ "type": "Feature", "properties": { "qrank": 107926, "id": "Q32793", "name": "Guadalupe Peak" }, "geometry": { "type": "Point", "coordinates": [ -104.860711111110007, 31.891461111110999 ] } },
{ "type": "Feature", "properties": { "qrank": 107520, "id": "Q1138090", "name": "Shōwa-shinzan" }, "geometry": { "type": "Point", "coordinates": [ 140.864444444440011, 42.5425 ] } },
{ "type": "Feature", "properties": { "qrank": 107384, "id": "Q1836325", "name": "Mont Aigoual" }, "geometry": { "type": "Point", "coordinates": [ 3.58343056, 44.11679167 ] } },
{ "type": "Feature", "properties": { "qrank": 106913, "id": "Q833975", "name": "Ferdinandea" }, "geometry": { "type": "Point", "coordinates": [ 12.718611, 37.163611 ] } },
{ "type": "Feature", "properties": { "qrank": 106458, "id": "Q83659", "name": "Mount Ida" }, "geometry": { "type": "Point", "coordinates": [ 24.770713888888999, 35.226388888888998 ] } },
{ "type": "Feature", "properties": { "qrank": 106359, "id": "Q826965", "name": "Niagara Escarpment" }, "geometry": { "type": "Point", "coordinates": [ -79.99966, 43.8334 ] } },
{ "type": "Feature", "properties": { "qrank": 105841, "id": "Q746524", "name": "Moldoveanu Peak" }, "geometry": { "type": "Point", "coordinates": [ 24.736211111111, 45.599438888888997 ] } },
{ "type": "Feature", "properties": { "qrank": 105120, "id": "Q692922", "name": "Novarupta" }, "geometry": { "type": "Point", "coordinates": [ -155.156666666669992, 58.266666666667 ] } },
{ "type": "Feature", "properties": { "qrank": 104725, "id": "Q14052", "name": "Sangay volcano" }, "geometry": { "type": "Point", "coordinates": [ -78.340833333332995, -2.0025 ] } },
{ "type": "Feature", "properties": { "qrank": 103791, "id": "Q578862", "name": "Pico Cristóbal Colón" }, "geometry": { "type": "Point", "coordinates": [ -73.686666666666994, 10.838333333333001 ] } },
{ "type": "Feature", "properties": { "qrank": 103636, "id": "Q1055970", "name": "Gargamel" }, "geometry": { "type": "Point", "coordinates": [ -65.749687, -19.618901 ] } },
{ "type": "Feature", "properties": { "qrank": 103413, "id": "Q92671", "name": "Glen Coe" }, "geometry": { "type": "Point", "coordinates": [ -4.9866666666667, 56.667777777777999 ] } },
{ "type": "Feature", "properties": { "qrank": 103160, "id": "Q3143042", "name": "Dena" }, "geometry": { "type": "Point", "coordinates": [ 51.4375, 30.951666666666998 ] } },
{ "type": "Feature", "properties": { "qrank": 102898, "id": "Q827728", "name": "Mount Kerinci" }, "geometry": { "type": "Point", "coordinates": [ 101.28343, -1.70445 ] } },
{ "type": "Feature", "properties": { "qrank": 102578, "id": "Q1754619", "name": "Mount Tsukuba" }, "geometry": { "type": "Point", "coordinates": [ 140.105, 36.225805555556001 ] } },
{ "type": "Feature", "properties": { "qrank": 102392, "id": "Q858808", "name": "Osorno" }, "geometry": { "type": "Point", "coordinates": [ -72.493055555555998, -41.1 ] } },
{ "type": "Feature", "properties": { "qrank": 102348, "id": "Q217457", "name": "Shkhara" }, "geometry": { "type": "Point", "coordinates": [ 43.111666666666999, 42.999444444444002 ] } },
{ "type": "Feature", "properties": { "qrank": 101988, "id": "Q2977103", "name": "Mount Tate" }, "geometry": { "type": "Point", "coordinates": [ 137.619722222219991, 36.575833333333001 ] } },
{ "type": "Feature", "properties": { "qrank": 101917, "id": "Q15132", "name": "Piz Bernina" }, "geometry": { "type": "Point", "coordinates": [ 9.908111111111101, 46.382388888888997 ] } },
{ "type": "Feature", "properties": { "qrank": 101560, "id": "Q1372", "name": "Gran Paradiso" }, "geometry": { "type": "Point", "coordinates": [ 7.2666666666667, 45.533333333332997 ] } },
{ "type": "Feature", "properties": { "qrank": 101528, "id": "Q1140642", "name": "Mount Catherine" }, "geometry": { "type": "Point", "coordinates": [ 33.955277777778001, 28.510833333333 ] } },
{ "type": "Feature", "properties": { "qrank": 101383, "id": "Q658271", "name": "Tibidabo" }, "geometry": { "type": "Point", "coordinates": [ 2.1186111111111, 41.4225 ] } },
{ "type": "Feature", "properties": { "qrank": 100500, "id": "Q871464", "name": "Mount Tenpō" }, "geometry": { "type": "Point", "coordinates": [ 135.432677777779986, 34.658066666666997 ] } },
{ "type": "Feature", "properties": { "qrank": 100133, "id": "Q1201788", "name": "Mount Mazama" }, "geometry": { "type": "Point", "coordinates": [ -122.0844711, 42.9165186 ] } },
{ "type": "Feature", "properties": { "qrank": 100049, "id": "Q2624360", "name": "Mount Ibuki" }, "geometry": { "type": "Point", "coordinates": [ 136.40591, 35.41794 ] } },
{ "type": "Feature", "properties": { "qrank": 99588, "id": "Q15224", "name": "Säntis" }, "geometry": { "type": "Point", "coordinates": [ 9.343333, 47.249167 ] } },
{ "type": "Feature", "properties": { "qrank": 99153, "id": "Q572865", "name": "El Misti" }, "geometry": { "type": "Point", "coordinates": [ -71.408888888888995, -16.294444444444 ] } },
{ "type": "Feature", "properties": { "qrank": 98887, "id": "Q666046", "name": "Vulkan Eifel" }, "geometry": { "type": "Point", "coordinates": [ 7.0, 50.283333333332997 ] } },
{ "type": "Feature", "properties": { "qrank": 98526, "id": "Q247726", "name": "Wasserkuppe" }, "geometry": { "type": "Point", "coordinates": [ 9.9377777777778, 50.498055555556 ] } },
{ "type": "Feature", "properties": { "qrank": 98315, "id": "Q1142817", "name": "Mount Narodnaya" }, "geometry": { "type": "Point", "coordinates": [ 60.116666666667001, 65.033333333333005 ] } },
{ "type": "Feature", "properties": { "qrank": 98281, "id": "Q206161", "name": "Mount Herzl" }, "geometry": { "type": "Point", "coordinates": [ 35.180567, 31.774117 ] } },
{ "type": "Feature", "properties": { "qrank": 98126, "id": "Q213704", "name": "Pico Bolívar" }, "geometry": { "type": "Point", "coordinates": [ -71.0465, 8.5408611111111 ] } },
{ "type": "Feature", "properties": { "qrank": 97148, "id": "Q267646", "name": "Mount Adams" }, "geometry": { "type": "Point", "coordinates": [ -121.490894444440002, 46.202411111110997 ] } },
{ "type": "Feature", "properties": { "qrank": 97128, "id": "Q925688", "name": "Uludağ" }, "geometry": { "type": "Point", "coordinates": [ 29.218055555555999, 40.0725 ] } },
{ "type": "Feature", "properties": { "qrank": 96963, "id": "Q1757764", "name": "Mount Royal" }, "geometry": { "type": "Point", "coordinates": [ -73.588888888889002, 45.506388888888999 ] } },
{ "type": "Feature", "properties": { "qrank": 96904, "id": "Q1357713", "name": "Mount Lycabettus" }, "geometry": { "type": "Point", "coordinates": [ 23.743055555556001, 37.981944444443997 ] } },
{ "type": "Feature", "properties": { "qrank": 96679, "id": "Q1945737", "name": "Monte Baldo" }, "geometry": { "type": "Point", "coordinates": [ 10.833, 45.733 ] } },
{ "type": "Feature", "properties": { "qrank": 96287, "id": "Q717742", "name": "Guishan Island" }, "geometry": { "type": "Point", "coordinates": [ 121.951666666669993, 24.841944444444 ] } },
{ "type": "Feature", "properties": { "qrank": 95915, "id": "Q701820", "name": "Monte Grappa" }, "geometry": { "type": "Point", "coordinates": [ 11.799166666667, 45.873333333333001 ] } },
{ "type": "Feature", "properties": { "qrank": 95460, "id": "Q387016", "name": "Creux du Van" }, "geometry": { "type": "Point", "coordinates": [ 6.7275, 46.936666666667001 ] } },
{ "type": "Feature", "properties": { "qrank": 95449, "id": "Q3629166", "name": "Kalsubai" }, "geometry": { "type": "Point", "coordinates": [ 73.7, 19.583333333333002 ] } },
{ "type": "Feature", "properties": { "qrank": 95438, "id": "Q961873", "name": "Mount Kita" }, "geometry": { "type": "Point", "coordinates": [ 138.23874, 35.67432 ] } },
{ "type": "Feature", "properties": { "qrank": 95152, "id": "Q1048225", "name": "Villarrica Volcano" }, "geometry": { "type": "Point", "coordinates": [ -71.939166666667006, -39.42 ] } },
{ "type": "Feature", "properties": { "qrank": 95096, "id": "Q825347", "name": "Colima" }, "geometry": { "type": "Point", "coordinates": [ -103.618055555560005, 19.511388888889002 ] } },
{ "type": "Feature", "properties": { "qrank": 94942, "id": "Q13359059", "name": "Mount Diablo" }, "geometry": { "type": "Point", "coordinates": [ -121.914154997, 37.881697781 ] } },
{ "type": "Feature", "properties": { "qrank": 94940, "id": "Q2026998", "name": "Burning Mountain" }, "geometry": { "type": "Point", "coordinates": [ 150.905833333330008, -31.863888888889001 ] } },
{ "type": "Feature", "properties": { "qrank": 94210, "id": "Q715498", "name": "Daisen" }, "geometry": { "type": "Point", "coordinates": [ 133.546389, 35.371111 ] } },
{ "type": "Feature", "properties": { "qrank": 93926, "id": "Q656026", "name": "Hotaka Mountains" }, "geometry": { "type": "Point", "coordinates": [ 137.648055559999989, 36.28916667 ] } },
{ "type": "Feature", "properties": { "qrank": 93616, "id": "Q278057", "name": "Cordillera Occidental" }, "geometry": { "type": "Point", "coordinates": [ -76.0, 5.0 ] } },
{ "type": "Feature", "properties": { "qrank": 93102, "id": "Q11116077", "name": "Mount Fanjing" }, "geometry": { "type": "Point", "coordinates": [ 108.690277777779997, 27.920277777778001 ] } },
{ "type": "Feature", "properties": { "qrank": 93097, "id": "Q1071445", "name": "Cheyenne Mountain" }, "geometry": { "type": "Point", "coordinates": [ -104.881, 38.737194444444 ] } },
{ "type": "Feature", "properties": { "qrank": 92889, "id": "Q854295", "name": "Masherbrum" }, "geometry": { "type": "Point", "coordinates": [ 76.310833333332994, 35.6425 ] } },
{ "type": "Feature", "properties": { "qrank": 92524, "id": "Q48817433", "name": "Muchu Chhish" }, "geometry": { "type": "Point", "coordinates": [ 74.555640555555996, 36.502131111110998 ] } },
{ "type": "Feature", "properties": { "qrank": 91425, "id": "Q215662", "name": "Monte Perdido" }, "geometry": { "type": "Point", "coordinates": [ 0.033333333333333, 42.673888888889003 ] } },
{ "type": "Feature", "properties": { "qrank": 91399, "id": "Q27015522", "name": "Fagradalsfjall" }, "geometry": { "type": "Point", "coordinates": [ -22.2725, 63.905 ] } },
{ "type": "Feature", "properties": { "qrank": 90723, "id": "Q470777", "name": "Mount Amiata" }, "geometry": { "type": "Point", "coordinates": [ 11.624369444444, 42.88775 ] } },
{ "type": "Feature", "properties": { "qrank": 88783, "id": "Q946750", "name": "Huaynaputina" }, "geometry": { "type": "Point", "coordinates": [ -70.85, -16.608333333333 ] } },
{ "type": "Feature", "properties": { "qrank": 88694, "id": "Q870148", "name": "Monte Verità" }, "geometry": { "type": "Point", "coordinates": [ 8.7248416666667, 46.158477777778003 ] } },
{ "type": "Feature", "properties": { "qrank": 88648, "id": "Q1139538", "name": "Nuptse" }, "geometry": { "type": "Point", "coordinates": [ 86.89, 27.966388888889 ] } },
{ "type": "Feature", "properties": { "qrank": 88577, "id": "Q1481864", "name": "Tai Mo Shan" }, "geometry": { "type": "Point", "coordinates": [ 114.123, 22.4118 ] } },
{ "type": "Feature", "properties": { "qrank": 88483, "id": "Q1778291", "name": "Cerro de la Silla" }, "geometry": { "type": "Point", "coordinates": [ -100.239053888889998, 25.627777777778 ] } },
{ "type": "Feature", "properties": { "qrank": 88483, "id": "Q102079702", "name": "Říp Mountain" }, "geometry": { "type": "Point", "coordinates": [ 14.2896344, 50.38653 ] } },
{ "type": "Feature", "properties": { "qrank": 88354, "id": "Q686841", "name": "Hoher Dachstein" }, "geometry": { "type": "Point", "coordinates": [ 13.605735, 47.475168 ] } },
{ "type": "Feature", "properties": { "qrank": 88338, "id": "Q747618", "name": "Kékes" }, "geometry": { "type": "Point", "coordinates": [ 20.00796, 47.87261 ] } },
{ "type": "Feature", "properties": { "qrank": 88197, "id": "Q861601", "name": "Lookout Mountain" }, "geometry": { "type": "Point", "coordinates": [ -85.392452777778004, 34.863713888889002 ] } },
{ "type": "Feature", "properties": { "qrank": 87826, "id": "Q207132", "name": "Tirich Mir" }, "geometry": { "type": "Point", "coordinates": [ 71.843888888888998, 36.245833333333003 ] } },
{ "type": "Feature", "properties": { "qrank": 87816, "id": "Q1334825", "name": "Pelion" }, "geometry": { "type": "Point", "coordinates": [ 23.05, 39.433333333333003 ] } },
{ "type": "Feature", "properties": { "qrank": 87638, "id": "Q289542", "name": "Mount Monadnock" }, "geometry": { "type": "Point", "coordinates": [ -72.108055555556007, 42.860833333332998 ] } },
{ "type": "Feature", "properties": { "qrank": 87538, "id": "Q30453", "name": "Grandes Jorasses" }, "geometry": { "type": "Point", "coordinates": [ 6.9833333333333, 45.866666666667001 ] } },
{ "type": "Feature", "properties": { "qrank": 87426, "id": "Q126804", "name": "Mount Erciyes" }, "geometry": { "type": "Point", "coordinates": [ 35.48, 38.52 ] } },
{ "type": "Feature", "properties": { "qrank": 87240, "id": "Q1373738", "name": "Mount Suribachi" }, "geometry": { "type": "Point", "coordinates": [ 141.28948, 24.7506 ] } },
{ "type": "Feature", "properties": { "qrank": 86974, "id": "Q1400310", "name": "Maroon Bells" }, "geometry": { "type": "Point", "coordinates": [ -106.989, 39.0708 ] } },
{ "type": "Feature", "properties": { "qrank": 86745, "id": "Q953994", "name": "Monte Terminillo" }, "geometry": { "type": "Point", "coordinates": [ 12.99732, 42.47327 ] } },
{ "type": "Feature", "properties": { "qrank": 86548, "id": "Q148998", "name": "Ještěd" }, "geometry": { "type": "Point", "coordinates": [ 14.985277777778, 50.732222222221999 ] } },
{ "type": "Feature", "properties": { "qrank": 85791, "id": "Q1516096", "name": "Tochal" }, "geometry": { "type": "Point", "coordinates": [ 51.419722222221999, 35.884166666666999 ] } },
{ "type": "Feature", "properties": { "qrank": 85649, "id": "Q207421", "name": "Tungurahua volcano" }, "geometry": { "type": "Point", "coordinates": [ -78.441666666667004, -1.4669444444444 ] } },
{ "type": "Feature", "properties": { "qrank": 85570, "id": "Q1010335", "name": "Burkhan Khaldun" }, "geometry": { "type": "Point", "coordinates": [ 109.166666666669997, 48.783333333332997 ] } },
{ "type": "Feature", "properties": { "qrank": 85174, "id": "Q590742", "name": "Dallol" }, "geometry": { "type": "Point", "coordinates": [ 40.3, 14.241666666666999 ] } },
{ "type": "Feature", "properties": { "qrank": 84864, "id": "Q785665", "name": "Mount Tamalpais" }, "geometry": { "type": "Point", "coordinates": [ -122.578, 37.9291 ] } },
{ "type": "Feature", "properties": { "qrank": 84794, "id": "Q1325530", "name": "Pen y Fan" }, "geometry": { "type": "Point", "coordinates": [ -3.436765, 51.884031 ] } },
{ "type": "Feature", "properties": { "qrank": 84777, "id": "Q1432738", "name": "Sahand" }, "geometry": { "type": "Point", "coordinates": [ 46.5, 37.73 ] } },
{ "type": "Feature", "properties": { "qrank": 84664, "id": "Q378943", "name": "Vitosha" }, "geometry": { "type": "Point", "coordinates": [ 23.283333333333001, 42.566666666666997 ] } },
{ "type": "Feature", "properties": { "qrank": 84444, "id": "Q543683", "name": "Mount of Beatitudes" }, "geometry": { "type": "Point", "coordinates": [ 35.55581944, 32.88078333 ] } },
{ "type": "Feature", "properties": { "qrank": 84160, "id": "Q384267", "name": "Łysa Góra" }, "geometry": { "type": "Point", "coordinates": [ 21.056666666666999, 50.841111111110997 ] } },
{ "type": "Feature", "properties": { "qrank": 84119, "id": "Q4922113", "name": "Black Virgin Mountain" }, "geometry": { "type": "Point", "coordinates": [ 106.16666667, 11.36666667 ] } },
{ "type": "Feature", "properties": { "qrank": 83890, "id": "Q636540", "name": "Corno Grande" }, "geometry": { "type": "Point", "coordinates": [ 13.565833333333, 42.469166666667 ] } },
{ "type": "Feature", "properties": { "qrank": 83857, "id": "Q1239004", "name": "Humphreys Peak" }, "geometry": { "type": "Point", "coordinates": [ -111.677947222219998, 35.346341666667001 ] } },
{ "type": "Feature", "properties": { "qrank": 83761, "id": "Q1587225", "name": "Mount Greylock" }, "geometry": { "type": "Point", "coordinates": [ -73.166666666666998, 42.6375 ] } },
{ "type": "Feature", "properties": { "qrank": 82934, "id": "Q260073", "name": "Großer Arber" }, "geometry": { "type": "Point", "coordinates": [ 13.136111111110999, 49.1125 ] } },
{ "type": "Feature", "properties": { "qrank": 82137, "id": "Q806074", "name": "Mount Banahaw" }, "geometry": { "type": "Point", "coordinates": [ 121.483333333329995, 14.066666666667 ] } },
{ "type": "Feature", "properties": { "qrank": 82030, "id": "Q7853729", "name": "Turbacz" }, "geometry": { "type": "Point", "coordinates": [ 20.11142, 49.54309 ] } },
{ "type": "Feature", "properties": { "qrank": 81356, "id": "Q22815120", "name": "The Pyramid" }, "geometry": { "type": "Point", "coordinates": [ 163.5, -78.35 ] } },
{ "type": "Feature", "properties": { "qrank": 81254, "id": "Q1858227", "name": "Mount Marcy" }, "geometry": { "type": "Point", "coordinates": [ -73.923727777777998, 44.112733333332997 ] } },
{ "type": "Feature", "properties": { "qrank": 81105, "id": "Q235062", "name": "Galeras" }, "geometry": { "type": "Point", "coordinates": [ -77.366666666667001, 1.2166666666667 ] } },
{ "type": "Feature", "properties": { "qrank": 80987, "id": "Q1139060", "name": "Pic du Midi de Bigorre" }, "geometry": { "type": "Point", "coordinates": [ 0.14111111111111, 42.937222222221997 ] } },
{ "type": "Feature", "properties": { "qrank": 80201, "id": "Q1496308", "name": "Gaustatoppen" }, "geometry": { "type": "Point", "coordinates": [ 8.6503333333333, 59.854138888888997 ] } },
{ "type": "Feature", "properties": { "qrank": 80026, "id": "Q285951", "name": "Jebel Akhdar" }, "geometry": { "type": "Point", "coordinates": [ 57.27518889, 23.21486111 ] } },
{ "type": "Feature", "properties": { "qrank": 79890, "id": "Q182913", "name": "Grímsvötn" }, "geometry": { "type": "Point", "coordinates": [ -17.33, 64.42 ] } },
{ "type": "Feature", "properties": { "qrank": 79477, "id": "Q746787", "name": "Ol Doinyo Lengai" }, "geometry": { "type": "Point", "coordinates": [ 35.913333333333, -2.7616666666667 ] } },
{ "type": "Feature", "properties": { "qrank": 79248, "id": "Q120314", "name": "Mount Wutai" }, "geometry": { "type": "Point", "coordinates": [ 113.566944444439997, 39.081388888889002 ] } },
{ "type": "Feature", "properties": { "qrank": 79114, "id": "Q6650", "name": "Canigou" }, "geometry": { "type": "Point", "coordinates": [ 2.4566666666667, 42.518888888889002 ] } },
{ "type": "Feature", "properties": { "qrank": 79113, "id": "Q1149310", "name": "La Grande Soufrière" }, "geometry": { "type": "Point", "coordinates": [ -61.67, 16.05 ] } },
{ "type": "Feature", "properties": { "qrank": 78236, "id": "Q1315012", "name": "Snæfellsjökull" }, "geometry": { "type": "Point", "coordinates": [ -23.771, 64.809 ] } },
{ "type": "Feature", "properties": { "qrank": 78235, "id": "Q1050238", "name": "Namcha Barwa" }, "geometry": { "type": "Point", "coordinates": [ 95.055277777778002, 29.630555555556001 ] } },
{ "type": "Feature", "properties": { "qrank": 78012, "id": "Q845427", "name": "Huayna Picchu" }, "geometry": { "type": "Point", "coordinates": [ -72.547222222222004, -13.1575 ] } },
{ "type": "Feature", "properties": { "qrank": 77996, "id": "Q1738211", "name": "Keli Mutubuurai" }, "geometry": { "type": "Point", "coordinates": [ 121.82, -8.77 ] } },
{ "type": "Feature", "properties": { "qrank": 77965, "id": "Q677873", "name": "Großer Feldberg" }, "geometry": { "type": "Point", "coordinates": [ 8.4588888888889, 50.2325 ] } },
{ "type": "Feature", "properties": { "qrank": 77876, "id": "Q713619", "name": "Mount Yōtei" }, "geometry": { "type": "Point", "coordinates": [ 140.806388888890012, 42.827222222221998 ] } },
{ "type": "Feature", "properties": { "qrank": 77802, "id": "Q1145123", "name": "Mount Gede" }, "geometry": { "type": "Point", "coordinates": [ 106.981666666669994, -6.7883333333333 ] } },
{ "type": "Feature", "properties": { "qrank": 77696, "id": "Q778597", "name": "Puy de Sancy" }, "geometry": { "type": "Point", "coordinates": [ 2.8141666666667, 45.528333333333002 ] } },
{ "type": "Feature", "properties": { "qrank": 77569, "id": "Q669559", "name": "Gunung Salak Satu" }, "geometry": { "type": "Point", "coordinates": [ 106.73, -6.72 ] } },
{ "type": "Feature", "properties": { "qrank": 76974, "id": "Q1161258", "name": "Mount Robson" }, "geometry": { "type": "Point", "coordinates": [ -119.156666666670006, 53.110277777778002 ] } },
{ "type": "Feature", "properties": { "qrank": 76920, "id": "Q309098", "name": "Mount Meru" }, "geometry": { "type": "Point", "coordinates": [ 36.76025, -3.2467805555556 ] } },
{ "type": "Feature", "properties": { "qrank": 76883, "id": "Q781595", "name": "Monte Testaccio" }, "geometry": { "type": "Point", "coordinates": [ 12.475694, 41.875952 ] } },
{ "type": "Feature", "properties": { "qrank": 76880, "id": "Q725591", "name": "Mount Bazardüzü" }, "geometry": { "type": "Point", "coordinates": [ 47.858055555556, 41.221111111111 ] } },
{ "type": "Feature", "properties": { "qrank": 76767, "id": "Q1853477", "name": "Mount Thor" }, "geometry": { "type": "Point", "coordinates": [ -65.3167, 66.5333 ] } },
{ "type": "Feature", "properties": { "qrank": 76515, "id": "Q1261892", "name": "Jabal Sawda" }, "geometry": { "type": "Point", "coordinates": [ 42.368055555555998, 18.267222222221999 ] } },
{ "type": "Feature", "properties": { "qrank": 76494, "id": "Q580131", "name": "Gunung Slamet" }, "geometry": { "type": "Point", "coordinates": [ 109.22, -7.239 ] } },
{ "type": "Feature", "properties": { "qrank": 76170, "id": "Q2744214", "name": "Mount Ishizuchi" }, "geometry": { "type": "Point", "coordinates": [ 133.115, 33.7675 ] } },
{ "type": "Feature", "properties": { "qrank": 75985, "id": "Q15291", "name": "Rigi" }, "geometry": { "type": "Point", "coordinates": [ 8.466666666666701, 47.05 ] } },
{ "type": "Feature", "properties": { "qrank": 75650, "id": "Q215516", "name": "Mount Helicon" }, "geometry": { "type": "Point", "coordinates": [ 22.825, 38.352222222221997 ] } },
{ "type": "Feature", "properties": { "qrank": 75531, "id": "Q1585737", "name": "Black Elk Peak" }, "geometry": { "type": "Point", "coordinates": [ -103.531666666670006, 43.871666666666997 ] } },
{ "type": "Feature", "properties": { "qrank": 75243, "id": "Q598893", "name": "Gunung Merbabu" }, "geometry": { "type": "Point", "coordinates": [ 110.44, -7.455 ] } },
{ "type": "Feature", "properties": { "qrank": 75173, "id": "Q674016", "name": "Praděd" }, "geometry": { "type": "Point", "coordinates": [ 17.231111111111002, 50.083055555556001 ] } },
{ "type": "Feature", "properties": { "qrank": 75140, "id": "Q770496", "name": "Mount Saint Elias" }, "geometry": { "type": "Point", "coordinates": [ -140.929444444440009, 60.293333333333003 ] } },
{ "type": "Feature", "properties": { "qrank": 74536, "id": "Q3492099", "name": "Jabal Bil Ays" }, "geometry": { "type": "Point", "coordinates": [ 56.1804, 25.9538 ] } },
{ "type": "Feature", "properties": { "qrank": 74451, "id": "Q842924", "name": "Brasstown Bald" }, "geometry": { "type": "Point", "coordinates": [ -83.810652777778003, 34.874197222222001 ] } },
{ "type": "Feature", "properties": { "qrank": 74407, "id": "Q714605", "name": "Mount Bandai" }, "geometry": { "type": "Point", "coordinates": [ 140.072222222220006, 37.600833333333 ] } },
{ "type": "Feature", "properties": { "qrank": 74096, "id": "Q1079434", "name": "Maiella" }, "geometry": { "type": "Point", "coordinates": [ 14.05, 42.05 ] } },
{ "type": "Feature", "properties": { "qrank": 73993, "id": "Q2723928", "name": "Eyjafjallajökull volcano" }, "geometry": { "type": "Point", "coordinates": [ -19.62, 63.63 ] } },
{ "type": "Feature", "properties": { "qrank": 73629, "id": "Q473435", "name": "Mount Bulusan" }, "geometry": { "type": "Point", "coordinates": [ 124.05, 12.77 ] } },
{ "type": "Feature", "properties": { "qrank": 73312, "id": "Q6745232", "name": "Mam Tor" }, "geometry": { "type": "Point", "coordinates": [ -1.81069, 53.34914 ] } },
{ "type": "Feature", "properties": { "qrank": 73289, "id": "Q1741750", "name": "Kinder Scout" }, "geometry": { "type": "Point", "coordinates": [ -1.8672222222222, 53.383333333332999 ] } },
{ "type": "Feature", "properties": { "qrank": 73206, "id": "Q2066357", "name": "Pedra da Gávea" }, "geometry": { "type": "Point", "coordinates": [ -43.284444444443999, -22.998055555556 ] } },
{ "type": "Feature", "properties": { "qrank": 72529, "id": "Q639487", "name": "Pitons" }, "geometry": { "type": "Point", "coordinates": [ -61.070361111110998, 13.807083333333001 ] } },
{ "type": "Feature", "properties": { "qrank": 72389, "id": "Q3036349", "name": "Garo Hills" }, "geometry": { "type": "Point", "coordinates": [ 90.333333333333002, 25.5 ] } },
{ "type": "Feature", "properties": { "qrank": 72318, "id": "Q1155726", "name": "Three Mountains of Dewa" }, "geometry": { "type": "Point", "coordinates": [ 140.000277777780013, 38.700277777777998 ] } },
{ "type": "Feature", "properties": { "qrank": 72211, "id": "Q3374661", "name": "Pendle Hill" }, "geometry": { "type": "Point", "coordinates": [ -2.3, 53.869 ] } },
{ "type": "Feature", "properties": { "qrank": 72189, "id": "Q1640131", "name": "Saddleworth Moor" }, "geometry": { "type": "Point", "coordinates": [ -1.9558333333333, 53.543333333333003 ] } },
{ "type": "Feature", "properties": { "qrank": 71257, "id": "Q1397720", "name": "Grand Ballon" }, "geometry": { "type": "Point", "coordinates": [ 7.0980555555556, 47.900833333332997 ] } },
{ "type": "Feature", "properties": { "qrank": 71234, "id": "Q3891235", "name": "Mount Osutaka" }, "geometry": { "type": "Point", "coordinates": [ 138.688, 36.0159 ] } },
{ "type": "Feature", "properties": { "qrank": 71106, "id": "Q819671", "name": "Wendelstein" }, "geometry": { "type": "Point", "coordinates": [ 12.012222, 47.702778 ] } },
{ "type": "Feature", "properties": { "qrank": 71039, "id": "Q697907", "name": "Großvenediger" }, "geometry": { "type": "Point", "coordinates": [ 12.346389, 47.108889 ] } },
{ "type": "Feature", "properties": { "qrank": 70816, "id": "Q787991", "name": "Barania Góra" }, "geometry": { "type": "Point", "coordinates": [ 19.010555555556, 49.611388888889003 ] } },
{ "type": "Feature", "properties": { "qrank": 70802, "id": "Q2636482", "name": "Naranjo de Bulnes" }, "geometry": { "type": "Point", "coordinates": [ -4.8166694444444, 43.2 ] } },
{ "type": "Feature", "properties": { "qrank": 70526, "id": "Q1261870", "name": "Jebel Hafeet" }, "geometry": { "type": "Point", "coordinates": [ 55.7833, 24.0458 ] } },
{ "type": "Feature", "properties": { "qrank": 69833, "id": "Q819979", "name": "Mount Olympus" }, "geometry": { "type": "Point", "coordinates": [ 32.863888888889001, 34.936666666667001 ] } },
{ "type": "Feature", "properties": { "qrank": 69713, "id": "Q818467", "name": "Volcán Tajumulco y Tacana" }, "geometry": { "type": "Point", "coordinates": [ -91.9, 15.033333333332999 ] } },
{ "type": "Feature", "properties": { "qrank": 69486, "id": "Q1143842", "name": "Cumorah" }, "geometry": { "type": "Point", "coordinates": [ -77.224, 43.0062 ] } },
{ "type": "Feature", "properties": { "qrank": 69436, "id": "Q1753878", "name": "Mount Augustus" }, "geometry": { "type": "Point", "coordinates": [ 116.841666666669994, -24.325 ] } },
{ "type": "Feature", "properties": { "qrank": 69158, "id": "Q1468844", "name": "Monte Zoncolan" }, "geometry": { "type": "Point", "coordinates": [ 12.916666666667, 46.5 ] } },
{ "type": "Feature", "properties": { "qrank": 69123, "id": "Q713826", "name": "Mount Chōkai" }, "geometry": { "type": "Point", "coordinates": [ 140.048888888889991, 39.099166666667003 ] } },
{ "type": "Feature", "properties": { "qrank": 68903, "id": "Q933778", "name": "Rakaposhi" }, "geometry": { "type": "Point", "coordinates": [ 74.489166666667003, 36.1425 ] } },
{ "type": "Feature", "properties": { "qrank": 68793, "id": "Q1587215", "name": "Mount Sunflower" }, "geometry": { "type": "Point", "coordinates": [ -102.037, 39.0219 ] } },
{ "type": "Feature", "properties": { "qrank": 68645, "id": "Q1327687", "name": "Volcán de Agua" }, "geometry": { "type": "Point", "coordinates": [ -90.742777777778002, 14.465 ] } },
{ "type": "Feature", "properties": { "qrank": 68547, "id": "Q1301834", "name": "Mount Scenery" }, "geometry": { "type": "Point", "coordinates": [ -63.239166666667003, 17.635 ] } },
{ "type": "Feature", "properties": { "qrank": 68485, "id": "Q15117", "name": "Dom" }, "geometry": { "type": "Point", "coordinates": [ 7.8566666666667, 46.094444444444001 ] } },
{ "type": "Feature", "properties": { "qrank": 68220, "id": "Q2731464", "name": "Suilven" }, "geometry": { "type": "Point", "coordinates": [ -5.1370694444444, 58.115 ] } },
{ "type": "Feature", "properties": { "qrank": 67889, "id": "Q714379", "name": "Hehuanshan" }, "geometry": { "type": "Point", "coordinates": [ 121.281388888890007, 24.181388888889 ] } },
{ "type": "Feature", "properties": { "qrank": 67889, "id": "Q628687", "name": "Croagh Patrick" }, "geometry": { "type": "Point", "coordinates": [ -9.6584, 53.7595 ] } },
{ "type": "Feature", "properties": { "qrank": 67882, "id": "Q594726", "name": "Volcán Barú" }, "geometry": { "type": "Point", "coordinates": [ -82.543, 8.808 ] } },
{ "type": "Feature", "properties": { "qrank": 67842, "id": "Q674801", "name": "Schilthorn" }, "geometry": { "type": "Point", "coordinates": [ 7.8352777777778, 46.557222222222002 ] } },
{ "type": "Feature", "properties": { "qrank": 67789, "id": "Q3634836", "name": "Hijaz mountains" }, "geometry": { "type": "Point", "coordinates": [ 41.0, 23.0 ] } },
{ "type": "Feature", "properties": { "qrank": 67689, "id": "Q128657", "name": "Mount San Antonio" }, "geometry": { "type": "Point", "coordinates": [ -117.647, 34.2889 ] } },
{ "type": "Feature", "properties": { "qrank": 67610, "id": "Q845990", "name": "Kriváň" }, "geometry": { "type": "Point", "coordinates": [ 20.002777777778, 49.163888888888998 ] } },
{ "type": "Feature", "properties": { "qrank": 67240, "id": "Q271700", "name": "Noshaq" }, "geometry": { "type": "Point", "coordinates": [ 71.828333333333006, 36.431666666666999 ] } },
{ "type": "Feature", "properties": { "qrank": 67175, "id": "Q1493617", "name": "Gannett Peak" }, "geometry": { "type": "Point", "coordinates": [ -109.654233333329998, 43.184202777777998 ] } },
{ "type": "Feature", "properties": { "qrank": 67168, "id": "Q1143757", "name": "Cumbre Vieja 2" }, "geometry": { "type": "Point", "coordinates": [ -17.833333333333002, 28.566666666667 ] } },
{ "type": "Feature", "properties": { "qrank": 66882, "id": "Q697928", "name": "Hahnenkamm" }, "geometry": { "type": "Point", "coordinates": [ 12.365277777777999, 47.424166666666999 ] } },
{ "type": "Feature", "properties": { "qrank": 66785, "id": "Q462120", "name": "Mount Rokkō" }, "geometry": { "type": "Point", "coordinates": [ 135.263888888889994, 34.777777777777999 ] } },
{ "type": "Feature", "properties": { "qrank": 66735, "id": "Q83060", "name": "Mount Ngauruhoe" }, "geometry": { "type": "Point", "coordinates": [ 175.631944444439995, -39.156944444444001 ] } },
{ "type": "Feature", "properties": { "qrank": 66622, "id": "Q15127", "name": "Finsteraarhorn" }, "geometry": { "type": "Point", "coordinates": [ 8.1260277777778, 46.537472222222 ] } },
{ "type": "Feature", "properties": { "qrank": 66442, "id": "Q148521", "name": "Illimani" }, "geometry": { "type": "Point", "coordinates": [ -67.790833333332998, -16.633333333332999 ] } },
{ "type": "Feature", "properties": { "qrank": 66180, "id": "Q2592686", "name": "Mount Yari" }, "geometry": { "type": "Point", "coordinates": [ 137.6475, 36.341944444444003 ] } },
{ "type": "Feature", "properties": { "qrank": 66039, "id": "Q26544", "name": "La Soufrière" }, "geometry": { "type": "Point", "coordinates": [ -61.183333333333003, 13.333333333333 ] } },
{ "type": "Feature", "properties": { "qrank": 66003, "id": "Q1479762", "name": "Monte Conero" }, "geometry": { "type": "Point", "coordinates": [ 13.6, 43.533333333332997 ] } },
{ "type": "Feature", "properties": { "qrank": 65995, "id": "Q622616", "name": "Mount Lu" }, "geometry": { "type": "Point", "coordinates": [ 115.973333333330004, 29.5725 ] } },
{ "type": "Feature", "properties": { "qrank": 65957, "id": "Q1735189", "name": "Kasprowy Wierch" }, "geometry": { "type": "Point", "coordinates": [ 19.981666666667, 49.231666666667003 ] } },
{ "type": "Feature", "properties": { "qrank": 65855, "id": "Q943209", "name": "Solfatara" }, "geometry": { "type": "Point", "coordinates": [ 14.13916667, 40.82722222 ] } },
{ "type": "Feature", "properties": { "qrank": 65482, "id": "Q1056078", "name": "Cerro de los Siete Colores" }, "geometry": { "type": "Point", "coordinates": [ -65.5035, -23.7469 ] } },
{ "type": "Feature", "properties": { "qrank": 65335, "id": "Q835407", "name": "Lion Rock" }, "geometry": { "type": "Point", "coordinates": [ 114.187, 22.3531 ] } },
{ "type": "Feature", "properties": { "qrank": 65264, "id": "Q911748", "name": "Gunung Galunggung" }, "geometry": { "type": "Point", "coordinates": [ 108.0770588, -7.2567315 ] } },
{ "type": "Feature", "properties": { "qrank": 65172, "id": "Q1975866", "name": "Mount Ebal" }, "geometry": { "type": "Point", "coordinates": [ 35.2733, 32.234 ] } },
{ "type": "Feature", "properties": { "qrank": 65148, "id": "Q2114101", "name": "Mawson Peak" }, "geometry": { "type": "Point", "coordinates": [ 73.516944444443993, -53.104166666666998 ] } },
{ "type": "Feature", "properties": { "qrank": 65131, "id": "Q164561", "name": "Fichtelberg" }, "geometry": { "type": "Point", "coordinates": [ 12.954166666667, 50.429444444444002 ] } },
{ "type": "Feature", "properties": { "qrank": 65028, "id": "Q774479", "name": "Cadair Idris" }, "geometry": { "type": "Point", "coordinates": [ -3.9086944444444, 52.699827777777998 ] } },
{ "type": "Feature", "properties": { "qrank": 64955, "id": "Q697119", "name": "Kahlenberg" }, "geometry": { "type": "Point", "coordinates": [ 16.3333, 48.2761 ] } },
{ "type": "Feature", "properties": { "qrank": 64910, "id": "Q521341", "name": "Góra Świętej Anny" }, "geometry": { "type": "Point", "coordinates": [ 18.16666667, 50.45 ] } },
{ "type": "Feature", "properties": { "qrank": 64749, "id": "Q272593", "name": "Nevado Sajama" }, "geometry": { "type": "Point", "coordinates": [ -68.883055555555998, -18.108055555556 ] } },
{ "type": "Feature", "properties": { "qrank": 64729, "id": "Q1545452", "name": "Piton des Neiges" }, "geometry": { "type": "Point", "coordinates": [ 55.478888888889003, -21.098888888889 ] } },
{ "type": "Feature", "properties": { "qrank": 64580, "id": "Q1161616", "name": "Mount Gilboa" }, "geometry": { "type": "Point", "coordinates": [ 35.414444444444001, 32.433888888889001 ] } },
{ "type": "Feature", "properties": { "qrank": 64328, "id": "Q16508414", "name": "Kalavantin Durg" }, "geometry": { "type": "Point", "coordinates": [ 73.2195, 18.9826 ] } },
{ "type": "Feature", "properties": { "qrank": 64026, "id": "Q707720", "name": "Xueshan" }, "geometry": { "type": "Point", "coordinates": [ 121.23, 24.383333333332999 ] } },
{ "type": "Feature", "properties": { "qrank": 63882, "id": "Q11505195", "name": "Mount Hiyori" }, "geometry": { "type": "Point", "coordinates": [ 141.01180556, 38.25575 ] } },
{ "type": "Feature", "properties": { "qrank": 63690, "id": "Q540520", "name": "Meron" }, "geometry": { "type": "Point", "coordinates": [ 35.412222222221999, 32.9975 ] } },
{ "type": "Feature", "properties": { "qrank": 63670, "id": "Q1953975", "name": "Musa Dagh Resistance" }, "geometry": { "type": "Point", "coordinates": [ 35.903611111110997, 36.258333333332999 ] } },
{ "type": "Feature", "properties": { "qrank": 63281, "id": "Q158526", "name": "Monte Titano" }, "geometry": { "type": "Point", "coordinates": [ 12.452222222222, 43.928333333333001 ] } },
{ "type": "Feature", "properties": { "qrank": 63212, "id": "Q43876", "name": "Mount Batur" }, "geometry": { "type": "Point", "coordinates": [ 115.375, -8.2419444444444 ] } },
{ "type": "Feature", "properties": { "qrank": 63197, "id": "Q2764344", "name": "Pavagadh" }, "geometry": { "type": "Point", "coordinates": [ 73.500480555555995, 22.466719444443999 ] } },
{ "type": "Feature", "properties": { "qrank": 63178, "id": "Q948670", "name": "Mount Pulag" }, "geometry": { "type": "Point", "coordinates": [ 120.88359166667, 16.583572222221999 ] } },
{ "type": "Feature", "properties": { "qrank": 62896, "id": "Q665042", "name": "Piz Palü" }, "geometry": { "type": "Point", "coordinates": [ 9.960555555555599, 46.378333333333003 ] } },
{ "type": "Feature", "properties": { "qrank": 62791, "id": "Q7194429", "name": "Pilot Knob" }, "geometry": { "type": "Point", "coordinates": [ -97.7061, 30.1622 ] } },
{ "type": "Feature", "properties": { "qrank": 62719, "id": "Q275435", "name": "Ras Dashen" }, "geometry": { "type": "Point", "coordinates": [ 38.3725, 13.236666666667 ] } },
{ "type": "Feature", "properties": { "qrank": 62303, "id": "Q1302768", "name": "Mount Hasan" }, "geometry": { "type": "Point", "coordinates": [ 34.165277777778002, 38.126388888888997 ] } },
{ "type": "Feature", "properties": { "qrank": 62290, "id": "Q1781878", "name": "Mount Kumotori" }, "geometry": { "type": "Point", "coordinates": [ 138.943611111109988, 35.855277777777999 ] } },
{ "type": "Feature", "properties": { "qrank": 62208, "id": "Q1072105", "name": "Lomnický štít" }, "geometry": { "type": "Point", "coordinates": [ 20.212777777778001, 49.2 ] } },
{ "type": "Feature", "properties": { "qrank": 61851, "id": "Q1551536", "name": "Mount Makiling" }, "geometry": { "type": "Point", "coordinates": [ 121.2, 14.13 ] } },
{ "type": "Feature", "properties": { "qrank": 61760, "id": "Q1415428", "name": "Monte Cinto" }, "geometry": { "type": "Point", "coordinates": [ 8.9455555555556, 42.379722222222 ] } },
{ "type": "Feature", "properties": { "qrank": 61599, "id": "Q577655", "name": "Tarnica" }, "geometry": { "type": "Point", "coordinates": [ 22.738055555555999, 49.069444444444002 ] } },
{ "type": "Feature", "properties": { "qrank": 61539, "id": "Q816556", "name": "Ben Lomond" }, "geometry": { "type": "Point", "coordinates": [ -4.633009, 56.190293 ] } },
{ "type": "Feature", "properties": { "qrank": 61478, "id": "Q478005", "name": "Szczeliniec Wielki" }, "geometry": { "type": "Point", "coordinates": [ 16.34268, 50.48362 ] } },
{ "type": "Feature", "properties": { "qrank": 61405, "id": "Q1950460", "name": "Mount Evans" }, "geometry": { "type": "Point", "coordinates": [ -105.644, 39.5883 ] } },
{ "type": "Feature", "properties": { "qrank": 61343, "id": "Q626809", "name": "Mount Arayat" }, "geometry": { "type": "Point", "coordinates": [ 120.742, 15.2 ] } },
{ "type": "Feature", "properties": { "qrank": 61252, "id": "Q713857", "name": "Mount Iwaki" }, "geometry": { "type": "Point", "coordinates": [ 140.306667, 40.653333 ] } },
{ "type": "Feature", "properties": { "qrank": 61120, "id": "Q221666", "name": "Mount Stanley" }, "geometry": { "type": "Point", "coordinates": [ 29.871666666667, 0.38583333333333 ] } },
{ "type": "Feature", "properties": { "qrank": 60952, "id": "Q1157658", "name": "Daisetsuzan Volcanic Group" }, "geometry": { "type": "Point", "coordinates": [ 142.85, 43.65 ] } },
{ "type": "Feature", "properties": { "qrank": 60950, "id": "Q1465660", "name": "Jade Dragon Snow Mountain" }, "geometry": { "type": "Point", "coordinates": [ 100.175, 27.098333333332999 ] } },
{ "type": "Feature", "properties": { "qrank": 60927, "id": "Q1945858", "name": "Monte Kali" }, "geometry": { "type": "Point", "coordinates": [ 9.98889, 50.9047 ] } },
{ "type": "Feature", "properties": { "qrank": 60865, "id": "Q1964765", "name": "Mount Nantai" }, "geometry": { "type": "Point", "coordinates": [ 139.48741, 36.768 ] } },
{ "type": "Feature", "properties": { "qrank": 60583, "id": "Q994071", "name": "Mount Myōgi" }, "geometry": { "type": "Point", "coordinates": [ 138.73472222222, 36.298611111111001 ] } },
{ "type": "Feature", "properties": { "qrank": 60321, "id": "Q487319", "name": "Anatahan" }, "geometry": { "type": "Point", "coordinates": [ 145.65, 16.35 ] } },
{ "type": "Feature", "properties": { "qrank": 60301, "id": "Q1348310", "name": "Mount Kongō" }, "geometry": { "type": "Point", "coordinates": [ 135.677222222219996, 34.416944444443999 ] } },
{ "type": "Feature", "properties": { "qrank": 60202, "id": "Q277441", "name": "Mount Wilhelm" }, "geometry": { "type": "Point", "coordinates": [ 145.033333333330006, -5.8 ] } },
{ "type": "Feature", "properties": { "qrank": 60084, "id": "Q912579", "name": "Korab" }, "geometry": { "type": "Point", "coordinates": [ 20.5467, 41.7903 ] } },
{ "type": "Feature", "properties": { "qrank": 60002, "id": "Q748241", "name": "Grand Colombier" }, "geometry": { "type": "Point", "coordinates": [ 5.76111111, 45.89916667 ] } },
{ "type": "Feature", "properties": { "qrank": 59728, "id": "Q499019", "name": "Jebel Barkal" }, "geometry": { "type": "Point", "coordinates": [ 31.8276, 18.5368 ] } },
{ "type": "Feature", "properties": { "qrank": 59676, "id": "Q152933", "name": "Petersberg" }, "geometry": { "type": "Point", "coordinates": [ 7.2075, 50.686111 ] } },
{ "type": "Feature", "properties": { "qrank": 59198, "id": "Q573840", "name": "Mount Mansfield" }, "geometry": { "type": "Point", "coordinates": [ -72.814166666667006, 44.543611111110998 ] } },
{ "type": "Feature", "properties": { "qrank": 59135, "id": "Q15122", "name": "Weisshorn" }, "geometry": { "type": "Point", "coordinates": [ 7.7161111111111, 46.101666666667001 ] } },
{ "type": "Feature", "properties": { "qrank": 59091, "id": "Q1399857", "name": "Mont Sainte-Odile" }, "geometry": { "type": "Point", "coordinates": [ 7.4044908, 48.437458 ] } },
{ "type": "Feature", "properties": { "qrank": 58917, "id": "Q59805", "name": "Mount Lemmon" }, "geometry": { "type": "Point", "coordinates": [ -110.788430555559998, 32.443130555556003 ] } },
{ "type": "Feature", "properties": { "qrank": 58893, "id": "Q3696208", "name": "Alam-Kuh" }, "geometry": { "type": "Point", "coordinates": [ 50.9625, 36.375833333332999 ] } },
{ "type": "Feature", "properties": { "qrank": 58819, "id": "Q5120896", "name": "Mount Nokogiri" }, "geometry": { "type": "Point", "coordinates": [ 139.840833333330011, 35.160277777777999 ] } },
{ "type": "Feature", "properties": { "qrank": 58800, "id": "Q1307926", "name": "Pic Saint-Loup" }, "geometry": { "type": "Point", "coordinates": [ 3.811389, 43.778611 ] } },
{ "type": "Feature", "properties": { "qrank": 58632, "id": "Q626222", "name": "Mont Gerbier de Jonc" }, "geometry": { "type": "Point", "coordinates": [ 4.220275, 44.84462222 ] } },
{ "type": "Feature", "properties": { "qrank": 58379, "id": "Q389121", "name": "Lanín" }, "geometry": { "type": "Point", "coordinates": [ -71.499722222222005, -39.632777777778003 ] } },
{ "type": "Feature", "properties": { "qrank": 58347, "id": "Q1420262", "name": "Veleta" }, "geometry": { "type": "Point", "coordinates": [ -3.3656888888889, 37.056027777777999 ] } },
{ "type": "Feature", "properties": { "qrank": 58291, "id": "Q16588", "name": "Piz Buin" }, "geometry": { "type": "Point", "coordinates": [ 10.11889, 46.84412 ] } },
{ "type": "Feature", "properties": { "qrank": 58051, "id": "Q12759913", "name": "Tara" }, "geometry": { "type": "Point", "coordinates": [ 19.45944445, 43.84833334 ] } },
{ "type": "Feature", "properties": { "qrank": 57558, "id": "Q1592015", "name": "Haystack Rock" }, "geometry": { "type": "Point", "coordinates": [ -123.96886944, 45.88486944 ] } },
{ "type": "Feature", "properties": { "qrank": 57348, "id": "Q679277", "name": "Wildspitze" }, "geometry": { "type": "Point", "coordinates": [ 10.867222222222001, 46.885277777778001 ] } },
{ "type": "Feature", "properties": { "qrank": 57276, "id": "Q1317383", "name": "Longs Peak" }, "geometry": { "type": "Point", "coordinates": [ -105.615113888889994, 40.255013888889003 ] } },
{ "type": "Feature", "properties": { "qrank": 57192, "id": "Q1414448", "name": "Tofua" }, "geometry": { "type": "Point", "coordinates": [ -175.066666666669988, -19.75 ] } },
{ "type": "Feature", "properties": { "qrank": 57180, "id": "Q126063", "name": "Auyantepui" }, "geometry": { "type": "Point", "coordinates": [ -62.541388888889003, 5.9002777777778 ] } },
{ "type": "Feature", "properties": { "qrank": 57179, "id": "Q2334182", "name": "Cape Fold Belt" }, "geometry": { "type": "Point", "coordinates": [ 22.0, -33.4 ] } },
{ "type": "Feature", "properties": { "qrank": 56626, "id": "Q278021", "name": "Arasbaran" }, "geometry": { "type": "Point", "coordinates": [ 46.7, 38.74 ] } },
{ "type": "Feature", "properties": { "qrank": 56615, "id": "Q657937", "name": "Penyal d'Ifac Natural Park" }, "geometry": { "type": "Point", "coordinates": [ 0.07444444, 38.63472222 ] } },
{ "type": "Feature", "properties": { "qrank": 56588, "id": "Q2670801", "name": "Mount Sodom" }, "geometry": { "type": "Point", "coordinates": [ 35.382777777778003, 31.092222222221999 ] } },
{ "type": "Feature", "properties": { "qrank": 56403, "id": "Q167951", "name": "Mount Zaō" }, "geometry": { "type": "Point", "coordinates": [ 140.443, 38.141 ] } },
{ "type": "Feature", "properties": { "qrank": 56364, "id": "Q151445", "name": "Bass Rock" }, "geometry": { "type": "Point", "coordinates": [ -2.640845, 56.077568 ] } },
{ "type": "Feature", "properties": { "qrank": 56343, "id": "Q5025875", "name": "Camelback Mountain" }, "geometry": { "type": "Point", "coordinates": [ -111.9618124, 33.5144875 ] } },
{ "type": "Feature", "properties": { "qrank": 56247, "id": "Q483204", "name": "Jirisan" }, "geometry": { "type": "Point", "coordinates": [ 127.730555555560002, 35.336944444444001 ] } },
{ "type": "Feature", "properties": { "qrank": 55855, "id": "Q11436814", "name": "Ōeyama" }, "geometry": { "type": "Point", "coordinates": [ 135.106667, 35.453333 ] } },
{ "type": "Feature", "properties": { "qrank": 55814, "id": "Q3695989", "name": "Mount Ōmine" }, "geometry": { "type": "Point", "coordinates": [ 135.940555555559996, 34.252777777778 ] } },
{ "type": "Feature", "properties": { "qrank": 55679, "id": "Q4116104", "name": "Jabal Thawr" }, "geometry": { "type": "Point", "coordinates": [ 39.85, 21.383333333332999 ] } },
{ "type": "Feature", "properties": { "qrank": 55464, "id": "Q404702", "name": "Aiguille du Dru" }, "geometry": { "type": "Point", "coordinates": [ 6.9563888888889, 45.932777777778 ] } },
{ "type": "Feature", "properties": { "qrank": 55450, "id": "Q1477173", "name": "Kjerag" }, "geometry": { "type": "Point", "coordinates": [ 6.5958333333333, 59.033055555555997 ] } },
{ "type": "Feature", "properties": { "qrank": 55339, "id": "Q5194936", "name": "Currahee Mountain" }, "geometry": { "type": "Point", "coordinates": [ -83.375883333332993, 34.529225 ] } },
{ "type": "Feature", "properties": { "qrank": 55164, "id": "Q325716", "name": "Hartmannswillerkopf" }, "geometry": { "type": "Point", "coordinates": [ 7.1611111111111, 47.861111111111001 ] } },
{ "type": "Feature", "properties": { "qrank": 55113, "id": "Q675446", "name": "Klein Matterhorn" }, "geometry": { "type": "Point", "coordinates": [ 7.7297222222222, 45.938333333332999 ] } },
{ "type": "Feature", "properties": { "qrank": 55074, "id": "Q822326", "name": "Mount Tahat" }, "geometry": { "type": "Point", "coordinates": [ 5.5336111111111, 23.288888888889002 ] } },
{ "type": "Feature", "properties": { "qrank": 55067, "id": "Q16525", "name": "Mönch" }, "geometry": { "type": "Point", "coordinates": [ 7.9972222222222, 46.558333333333003 ] } },
{ "type": "Feature", "properties": { "qrank": 54928, "id": "Q953984", "name": "Mammoth Mountain" }, "geometry": { "type": "Point", "coordinates": [ -119.033, 37.6306 ] } },
{ "type": "Feature", "properties": { "qrank": 54857, "id": "Q830100", "name": "Besseggen" }, "geometry": { "type": "Point", "coordinates": [ 8.72685, 61.504608333333003 ] } },
{ "type": "Feature", "properties": { "qrank": 54854, "id": "Q2119428", "name": "Puy Mary" }, "geometry": { "type": "Point", "coordinates": [ 2.6762527777778, 45.1093 ] } },
{ "type": "Feature", "properties": { "qrank": 54832, "id": "Q1761242", "name": "Myōjin-shō" }, "geometry": { "type": "Point", "coordinates": [ 139.916666666670011, 31.883333333332999 ] } },
{ "type": "Feature", "properties": { "qrank": 54788, "id": "Q1505965", "name": "Wheeler Peak" }, "geometry": { "type": "Point", "coordinates": [ -105.417, 36.5569 ] } },
{ "type": "Feature", "properties": { "qrank": 54762, "id": "Q742216", "name": "Pichincha Volcano" }, "geometry": { "type": "Point", "coordinates": [ -78.598888888888993, -0.17722222222222 ] } },
{ "type": "Feature", "properties": { "qrank": 54731, "id": "Q561875", "name": "Kahler Asten" }, "geometry": { "type": "Point", "coordinates": [ 8.4888888888889, 51.179444444444002 ] } },
{ "type": "Feature", "properties": { "qrank": 54596, "id": "Q7635010", "name": "Sugarloaf Mountain" }, "geometry": { "type": "Point", "coordinates": [ -81.7331, 28.6494 ] } },
{ "type": "Feature", "properties": { "qrank": 54585, "id": "Q1517182", "name": "Mont Agel" }, "geometry": { "type": "Point", "coordinates": [ 7.4263888888889, 43.775277777778001 ] } },
{ "type": "Feature", "properties": { "qrank": 54537, "id": "Q1945818", "name": "Monte Cimone" }, "geometry": { "type": "Point", "coordinates": [ 10.701388888888999, 44.193888888888999 ] } },
{ "type": "Feature", "properties": { "qrank": 54394, "id": "Q386518", "name": "Mount Ōyama" }, "geometry": { "type": "Point", "coordinates": [ 139.23111111111001, 35.440833333333003 ] } },
{ "type": "Feature", "properties": { "qrank": 54391, "id": "Q823391", "name": "Cerro del Cubilete" }, "geometry": { "type": "Point", "coordinates": [ -101.369, 21.012 ] } },
{ "type": "Feature", "properties": { "qrank": 54250, "id": "Q507179", "name": "Gunung Cereme" }, "geometry": { "type": "Point", "coordinates": [ 108.4, -6.8919444444444 ] } },
{ "type": "Feature", "properties": { "qrank": 54121, "id": "Q1677690", "name": "Gunung Sumbing" }, "geometry": { "type": "Point", "coordinates": [ 110.0725, -7.385 ] } },
{ "type": "Feature", "properties": { "qrank": 54016, "id": "Q15138", "name": "Titlis" }, "geometry": { "type": "Point", "coordinates": [ 8.4377777777778, 46.771944444444003 ] } },
{ "type": "Feature", "properties": { "qrank": 53785, "id": "Q279915", "name": "Mount Kusatsu-Shirane" }, "geometry": { "type": "Point", "coordinates": [ 138.527777777779988, 36.643888888889002 ] } },
{ "type": "Feature", "properties": { "qrank": 53749, "id": "Q384265", "name": "Łysica" }, "geometry": { "type": "Point", "coordinates": [ 20.9, 50.9 ] } },
{ "type": "Feature", "properties": { "qrank": 53635, "id": "Q3042478", "name": "Belogradchik Rocks" }, "geometry": { "type": "Point", "coordinates": [ 22.685, 43.62083333 ] } },
{ "type": "Feature", "properties": { "qrank": 53625, "id": "Q754734", "name": "Cayambe volcano" }, "geometry": { "type": "Point", "coordinates": [ -77.986, 0.029 ] } },
{ "type": "Feature", "properties": { "qrank": 53558, "id": "Q1067417", "name": "Mount Hakone" }, "geometry": { "type": "Point", "coordinates": [ 139.023888888890014, 35.23 ] } },
{ "type": "Feature", "properties": { "qrank": 53439, "id": "Q10942220", "name": "Qilai Mountain" }, "geometry": { "type": "Point", "coordinates": [ 121.323, 24.086 ] } },
{ "type": "Feature", "properties": { "qrank": 53230, "id": "Q3892307", "name": "Mount Takamagahara" }, "geometry": { "type": "Point", "coordinates": [ 138.68875, 35.991777777777997 ] } },
{ "type": "Feature", "properties": { "qrank": 53159, "id": "Q3434515", "name": "Whiteface Mountain" }, "geometry": { "type": "Point", "coordinates": [ -73.9028, 44.3658 ] } },
{ "type": "Feature", "properties": { "qrank": 53083, "id": "Q589546", "name": "Pico da Bandeira" }, "geometry": { "type": "Point", "coordinates": [ -41.7963, -20.435151 ] } },
{ "type": "Feature", "properties": { "qrank": 53067, "id": "Q3133588", "name": "Mount Norikura" }, "geometry": { "type": "Point", "coordinates": [ 137.55361111, 36.10638889 ] } },
{ "type": "Feature", "properties": { "qrank": 53064, "id": "Q1140980", "name": "Mount Song" }, "geometry": { "type": "Point", "coordinates": [ 112.960277777779993, 34.484722222221997 ] } },
{ "type": "Feature", "properties": { "qrank": 53037, "id": "Q1131832", "name": "Amba Aradam" }, "geometry": { "type": "Point", "coordinates": [ 39.516666666667, 13.333333333333 ] } },
{ "type": "Feature", "properties": { "qrank": 53022, "id": "Q13360737", "name": "Koli" }, "geometry": { "type": "Point", "coordinates": [ 29.808611111110999, 63.094444444444001 ] } },
{ "type": "Feature", "properties": { "qrank": 52951, "id": "Q1511454", "name": "Kala Patthar" }, "geometry": { "type": "Point", "coordinates": [ 86.828416666666996, 27.995833333333 ] } },
{ "type": "Feature", "properties": { "qrank": 52676, "id": "Q11434371", "name": "Mount Ōmuro" }, "geometry": { "type": "Point", "coordinates": [ 139.094444444440001, 34.904166666667003 ] } },
{ "type": "Feature", "properties": { "qrank": 52564, "id": "Q1642538", "name": "King's Peak" }, "geometry": { "type": "Point", "coordinates": [ -110.372777777780001, 40.776388888889002 ] } },
{ "type": "Feature", "properties": { "qrank": 52555, "id": "Q315268", "name": "Hill 400" }, "geometry": { "type": "Point", "coordinates": [ 6.442, 50.695 ] } },
{ "type": "Feature", "properties": { "qrank": 52473, "id": "Q519756", "name": "Cerro de la negra babosa" }, "geometry": { "type": "Point", "coordinates": [ -68.010277777778001, -22.331388888888998 ] } },
{ "type": "Feature", "properties": { "qrank": 52460, "id": "Q2577068", "name": "San Salvador Volcano" }, "geometry": { "type": "Point", "coordinates": [ -89.293888888889001, 13.733888888889 ] } },
{ "type": "Feature", "properties": { "qrank": 52230, "id": "Q1537157", "name": "Mount Gongga" }, "geometry": { "type": "Point", "coordinates": [ 101.879166666670002, 29.595833333333001 ] } },
{ "type": "Feature", "properties": { "qrank": 52181, "id": "Q825709", "name": "Gunnbjørn Fjeld" }, "geometry": { "type": "Point", "coordinates": [ -29.898533333332999, 68.9195 ] } },
{ "type": "Feature", "properties": { "qrank": 52130, "id": "Q3505665", "name": "Ajusco" }, "geometry": { "type": "Point", "coordinates": [ -99.258055555555998, 19.2075 ] } },
{ "type": "Feature", "properties": { "qrank": 52090, "id": "Q2470386", "name": "Ayu-Dag" }, "geometry": { "type": "Point", "coordinates": [ 34.333333333333002, 44.55 ] } },
{ "type": "Feature", "properties": { "qrank": 51850, "id": "Q2530284", "name": "Mount Circeo" }, "geometry": { "type": "Point", "coordinates": [ 13.05553, 41.23109 ] } },
{ "type": "Feature", "properties": { "qrank": 51774, "id": "Q22547", "name": "Donnersberg" }, "geometry": { "type": "Point", "coordinates": [ 7.9147194444444, 49.625280555556003 ] } },
{ "type": "Feature", "properties": { "qrank": 51720, "id": "Q314228", "name": "Langenberg" }, "geometry": { "type": "Point", "coordinates": [ 8.5583333333333, 51.276388888889002 ] } },
{ "type": "Feature", "properties": { "qrank": 51719, "id": "Q338192", "name": "Acatenango" }, "geometry": { "type": "Point", "coordinates": [ -90.875833333333006, 14.5 ] } },
{ "type": "Feature", "properties": { "qrank": 51697, "id": "Q729873", "name": "Mount Somma" }, "geometry": { "type": "Point", "coordinates": [ 14.426111111111, 40.821666666666999 ] } },
{ "type": "Feature", "properties": { "qrank": 51486, "id": "Q312818", "name": "Mount Scopus" }, "geometry": { "type": "Point", "coordinates": [ 35.244166666666999, 31.7925 ] } },
{ "type": "Feature", "properties": { "qrank": 51348, "id": "Q1394606", "name": "Mount Kibo" }, "geometry": { "type": "Point", "coordinates": [ 37.35903056, -3.06505278 ] } },
{ "type": "Feature", "properties": { "qrank": 51222, "id": "Q3533921", "name": "Guru Shikhar" }, "geometry": { "type": "Point", "coordinates": [ 72.781944444443994, 24.665277777778002 ] } },
{ "type": "Feature", "properties": { "qrank": 51084, "id": "Q2417486", "name": "Monte Vettore" }, "geometry": { "type": "Point", "coordinates": [ 13.266666666667, 42.816666666666997 ] } },
{ "type": "Feature", "properties": { "qrank": 51022, "id": "Q1018862", "name": "Bárðarbunga" }, "geometry": { "type": "Point", "coordinates": [ -17.527777777777999, 64.640833333333006 ] } },
{ "type": "Feature", "properties": { "qrank": 50950, "id": "Q73077", "name": "Pic du Midi d'Ossau" }, "geometry": { "type": "Point", "coordinates": [ -0.43805555555556, 42.843055555555999 ] } },
{ "type": "Feature", "properties": { "qrank": 50895, "id": "Q217274", "name": "Eldfell" }, "geometry": { "type": "Point", "coordinates": [ -20.246608333333, 63.430552777777997 ] } },
{ "type": "Feature", "properties": { "qrank": 50884, "id": "Q2975204", "name": "Mount Atago" }, "geometry": { "type": "Point", "coordinates": [ 135.634166666670012, 35.06 ] } },
{ "type": "Feature", "properties": { "qrank": 50764, "id": "Q315110", "name": "Hohe Acht" }, "geometry": { "type": "Point", "coordinates": [ 7.0111111111111, 50.385833333332997 ] } },
{ "type": "Feature", "properties": { "qrank": 50679, "id": "Q1871347", "name": "El Panecillo" }, "geometry": { "type": "Point", "coordinates": [ -78.518611111110999, -0.22861111111111 ] } },
{ "type": "Feature", "properties": { "qrank": 50576, "id": "Q1138451", "name": "Cradle Mountain" }, "geometry": { "type": "Point", "coordinates": [ 145.951275, -41.684644444443997 ] } },
{ "type": "Feature", "properties": { "qrank": 50554, "id": "Q1014974", "name": "Tepeyac" }, "geometry": { "type": "Point", "coordinates": [ -99.1157824, 19.4868321 ] } },
{ "type": "Feature", "properties": { "qrank": 50551, "id": "Q4115817", "name": "Jabal al-Lawz" }, "geometry": { "type": "Point", "coordinates": [ 35.305833333332998, 28.654166666666999 ] } },
{ "type": "Feature", "properties": { "qrank": 50476, "id": "Q1026302", "name": "Calbuco" }, "geometry": { "type": "Point", "coordinates": [ -72.611111111111001, -41.332777777777999 ] } },
{ "type": "Feature", "properties": { "qrank": 50416, "id": "Q2183673", "name": "Baraque de Fraiture" }, "geometry": { "type": "Point", "coordinates": [ 5.738889, 50.249444 ] } },
{ "type": "Feature", "properties": { "qrank": 50390, "id": "Q1370044", "name": "Lovćen" }, "geometry": { "type": "Point", "coordinates": [ 18.833333333333002, 42.4 ] } },
{ "type": "Feature", "properties": { "qrank": 50360, "id": "Q2914585", "name": "The Wrekin" }, "geometry": { "type": "Point", "coordinates": [ -2.55153, 52.66843 ] } },
{ "type": "Feature", "properties": { "qrank": 50303, "id": "Q577700", "name": "Puyehue-Cordón Caulle" }, "geometry": { "type": "Point", "coordinates": [ -72.116666666667001, -40.583333333333002 ] } },
{ "type": "Feature", "properties": { "qrank": 50294, "id": "Q1815535", "name": "Spruce Knob" }, "geometry": { "type": "Point", "coordinates": [ -79.5328, 38.6999 ] } },
{ "type": "Feature", "properties": { "qrank": 50174, "id": "Q140084", "name": "Hvannadalshnúkur" }, "geometry": { "type": "Point", "coordinates": [ -16.674722222222002, 64.015833333333006 ] } },
{ "type": "Feature", "properties": { "qrank": 50109, "id": "Q1637507", "name": "Saana" }, "geometry": { "type": "Point", "coordinates": [ 20.856111111111002, 69.043611111111005 ] } },
{ "type": "Feature", "properties": { "qrank": 50071, "id": "Q262545", "name": "Hochkönig" }, "geometry": { "type": "Point", "coordinates": [ 13.063166666667, 47.420805555556001 ] } },
{ "type": "Feature", "properties": { "qrank": 49923, "id": "Q834454", "name": "Gasherbrum IV" }, "geometry": { "type": "Point", "coordinates": [ 76.615833333333001, 35.759166666666999 ] } },
{ "type": "Feature", "properties": { "qrank": 49778, "id": "Q336749", "name": "Doddabetta" }, "geometry": { "type": "Point", "coordinates": [ 76.736722222221999, 11.402416666666999 ] } },
{ "type": "Feature", "properties": { "qrank": 49562, "id": "Q3660", "name": "Mount Davis" }, "geometry": { "type": "Point", "coordinates": [ -79.1759, 39.7862 ] } },
{ "type": "Feature", "properties": { "qrank": 49559, "id": "Q613424", "name": "Masaya Volcano" }, "geometry": { "type": "Point", "coordinates": [ -86.161944444444003, 11.982777777778001 ] } },
{ "type": "Feature", "properties": { "qrank": 49558, "id": "Q948061", "name": "Schiehallion" }, "geometry": { "type": "Point", "coordinates": [ -4.100229, 56.666933 ] } },
{ "type": "Feature", "properties": { "qrank": 49445, "id": "Q510076", "name": "Pietra di Bismantova" }, "geometry": { "type": "Point", "coordinates": [ 10.4104, 44.4198 ] } },
{ "type": "Feature", "properties": { "qrank": 49343, "id": "Q341983", "name": "Đeravica" }, "geometry": { "type": "Point", "coordinates": [ 20.140833333332999, 42.532777777778001 ] } },
{ "type": "Feature", "properties": { "qrank": 49272, "id": "Q8519110", "name": "Roseberry Topping" }, "geometry": { "type": "Point", "coordinates": [ -1.10736, 54.5054 ] } },
{ "type": "Feature", "properties": { "qrank": 49195, "id": "Q646398", "name": "Kongur Tagh" },